{"meta":{"layer":"data_centers","recordCount":1592,"namedCount":1371,"operatorCount":1076,"coverage":"United States features reported in OpenStreetMap","coverageStatus":"incomplete","checkedAt":"2026-06-18","sourceUrl":"https://www.openstreetmap.org/","coverageWarning":"OpenStreetMap is community-maintained. Missing facilities do not indicate that no data center exists in an area.","sources":{"openstreetmap-overpass":{"publisher":"OpenStreetMap contributors","dataset":"OpenStreetMap data-center tags via Overpass","url":"https://www.openstreetmap.org/","downloadUrl":"https://overpass-api.de/api/interpreter","checkedAt":"2026-06-18","confidence":"community_reported","cadence":"monthly","license":"ODbL 1.0","note":"Community-reported and incomplete. Facility attributes may be missing, approximate, duplicated, or outdated."}}},"features":[{"id":"osm-node-10014176940","type":"data_center","name":"Microsoft","geometry":{"type":"Point","coordinates":[-66.1089895,18.4174359]},"properties":{"osmType":"node","osmId":10014176940,"operator":"Microsoft","owner":"","address":"48 Avenida El Ca\u00f1o, Guaynabo, PR, 00968","city":"Guaynabo","state":"PR","postcode":"00968","website":"www,microsoft.com/es-pr","status":"existing","startDate":"","clli":"","coverage":"community_reported","capacityMw":null},"sourceRef":"openstreetmap-overpass"},{"id":"osm-node-10537283366","type":"data_center","name":"Netrality","geometry":{"type":"Point","coordinates":[-87.63344,41.8728811]},"properties":{"osmType":"node","osmId":10537283366,"operator":"Netrality","owner":"","address":"717 South Wells Street, Chicago, IL, 60607","city":"Chicago","state":"IL","postcode":"60607","website":"","status":"existing","startDate":"","clli":"","coverage":"community_reported","capacityMw":null},"sourceRef":"openstreetmap-overpass"},{"id":"osm-node-10567817971","type":"data_center","name":"Brandaleone Lab for Data and Visualization","geometry":{"type":"Point","coordinates":[-78.9385323,36.0030993]},"properties":{"osmType":"node","osmId":10567817971,"operator":"Duke Libraries","owner":"","address":"","city":"","state":"","postcode":"","website":"","status":"existing","startDate":"","clli":"","coverage":"community_reported","capacityMw":null},"sourceRef":"openstreetmap-overpass"},{"id":"osm-node-10648552506","type":"data_center","name":"Frontier (supercomputer)","geometry":{"type":"Point","coordinates":[-84.310567,35.9295133]},"properties":{"osmType":"node","osmId":10648552506,"operator":"Oak Ridge National Laboratory","owner":"","address":"","city":"","state":"","postcode":"","website":"","status":"existing","startDate":"","clli":"","coverage":"community_reported","capacityMw":null},"sourceRef":"openstreetmap-overpass"},{"id":"osm-node-10780794741","type":"data_center","name":"Ntirety","geometry":{"type":"Point","coordinates":[-122.3940005,37.7796531]},"properties":{"osmType":"node","osmId":10780794741,"operator":"Ntirety","owner":"","address":"630 3rd Street, CA","city":"","state":"CA","postcode":"","website":"","status":"existing","startDate":"","clli":"","coverage":"community_reported","capacityMw":null},"sourceRef":"openstreetmap-overpass"},{"id":"osm-node-10796113031","type":"data_center","name":"VaultLogix","geometry":{"type":"Point","coordinates":[-111.9017033,33.627367]},"properties":{"osmType":"node","osmId":10796113031,"operator":"","owner":"","address":"","city":"","state":"","postcode":"","website":"","status":"existing","startDate":"","clli":"","coverage":"community_reported","capacityMw":null},"sourceRef":"openstreetmap-overpass"},{"id":"osm-node-10796113033","type":"data_center","name":"Profit Finder Pro Software","geometry":{"type":"Point","coordinates":[-111.9020476,33.6272477]},"properties":{"osmType":"node","osmId":10796113033,"operator":"","owner":"","address":"","city":"","state":"","postcode":"","website":"","status":"existing","startDate":"","clli":"","coverage":"community_reported","capacityMw":null},"sourceRef":"openstreetmap-overpass"},{"id":"osm-node-10798644674","type":"data_center","name":"DataPro USA Web Development","geometry":{"type":"Point","coordinates":[-111.9139825,33.6116624]},"properties":{"osmType":"node","osmId":10798644674,"operator":"","owner":"","address":"","city":"","state":"","postcode":"","website":"","status":"existing","startDate":"","clli":"","coverage":"community_reported","capacityMw":null},"sourceRef":"openstreetmap-overpass"},{"id":"osm-node-10880725408","type":"data_center","name":"e360","geometry":{"type":"Point","coordinates":[-122.0437382,37.9710809]},"properties":{"osmType":"node","osmId":10880725408,"operator":"","owner":"","address":"1855 Gateway Boulevard, Concord, CA, 94520","city":"Concord","state":"CA","postcode":"94520","website":"https://www.e360.com/","status":"existing","startDate":"","clli":"","coverage":"community_reported","capacityMw":null},"sourceRef":"openstreetmap-overpass"},{"id":"osm-node-10910879064","type":"data_center","name":"Digital Realty ORD10","geometry":{"type":"Point","coordinates":[-87.6183067,41.8533507]},"properties":{"osmType":"node","osmId":10910879064,"operator":"Digital Realty","owner":"","address":"350 East Cermak Road, Chicago, IL, 60616","city":"Chicago","state":"IL","postcode":"60616","website":"","status":"existing","startDate":"","clli":"","coverage":"community_reported","capacityMw":null},"sourceRef":"openstreetmap-overpass"},{"id":"osm-node-10910879065","type":"data_center","name":"Centersquare Chicago Data Center - ORD1","geometry":{"type":"Point","coordinates":[-87.6186071,41.8533827]},"properties":{"osmType":"node","osmId":10910879065,"operator":"Centersquare","owner":"","address":"350 East Cermak Road, Chicago, IL, 60616","city":"Chicago","state":"IL","postcode":"60616","website":"https://centersquaredc.com/data-centers/chicago#chicagocermak-ord1","status":"existing","startDate":"","clli":"","coverage":"community_reported","capacityMw":null},"sourceRef":"openstreetmap-overpass"},{"id":"osm-node-10938672218","type":"data_center","name":"K-Motion Interactive","geometry":{"type":"Point","coordinates":[-111.8843457,33.6344843]},"properties":{"osmType":"node","osmId":10938672218,"operator":"","owner":"","address":"","city":"","state":"","postcode":"","website":"","status":"existing","startDate":"","clli":"","coverage":"community_reported","capacityMw":null},"sourceRef":"openstreetmap-overpass"},{"id":"osm-node-10945121336","type":"data_center","name":"West Monroe","geometry":{"type":"Point","coordinates":[-87.6359383,41.8805271]},"properties":{"osmType":"node","osmId":10945121336,"operator":"","owner":"","address":"","city":"","state":"","postcode":"","website":"","status":"existing","startDate":"","clli":"","coverage":"community_reported","capacityMw":null},"sourceRef":"openstreetmap-overpass"},{"id":"osm-node-11018926315","type":"data_center","name":"Iron Mountain Data Centers AZS-1","geometry":{"type":"Point","coordinates":[-111.8960985,33.6446663]},"properties":{"osmType":"node","osmId":11018926315,"operator":"","owner":"","address":"","city":"","state":"","postcode":"","website":"","status":"existing","startDate":"","clli":"","coverage":"community_reported","capacityMw":null},"sourceRef":"openstreetmap-overpass"},{"id":"osm-node-11098469355","type":"data_center","name":"CoreSite Chicago Data Center (CH1)","geometry":{"type":"Point","coordinates":[-87.6314655,41.8759405]},"properties":{"osmType":"node","osmId":11098469355,"operator":"CoreSite","owner":"","address":"427 South LaSalle Street, Chicago, IL, 60605","city":"Chicago","state":"IL","postcode":"60605","website":"https://www.coresite.com/data-center/ch1-chicago-il","status":"existing","startDate":"","clli":"CHCGILWU","coverage":"community_reported","capacityMw":null},"sourceRef":"openstreetmap-overpass"},{"id":"osm-node-11113161710","type":"data_center","name":"Accelera Data Systems","geometry":{"type":"Point","coordinates":[-112.1117142,33.6647455]},"properties":{"osmType":"node","osmId":11113161710,"operator":"","owner":"","address":"","city":"","state":"","postcode":"","website":"","status":"existing","startDate":"","clli":"","coverage":"community_reported","capacityMw":null},"sourceRef":"openstreetmap-overpass"},{"id":"osm-node-11167641842","type":"data_center","name":"Expedient Owings Mills","geometry":{"type":"Point","coordinates":[-76.8115503,39.4273178]},"properties":{"osmType":"node","osmId":11167641842,"operator":"Expedient","owner":"","address":"11155 Red Run Boulevard, Owings Mills, MD, 21117","city":"Owings Mills","state":"MD","postcode":"21117","website":"https://www.expedient.com/data-centers/baltimore/","status":"existing","startDate":"","clli":"","coverage":"community_reported","capacityMw":null},"sourceRef":"openstreetmap-overpass"},{"id":"osm-node-11168593074","type":"data_center","name":"Lumen Baltimore","geometry":{"type":"Point","coordinates":[-76.6204024,39.2917592]},"properties":{"osmType":"node","osmId":11168593074,"operator":"Lumen Technologies","owner":"","address":"","city":"","state":"","postcode":"","website":"","status":"existing","startDate":"","clli":"","coverage":"community_reported","capacityMw":null},"sourceRef":"openstreetmap-overpass"},{"id":"osm-node-11168593094","type":"data_center","name":"Expedient Tidepoint","geometry":{"type":"Point","coordinates":[-76.5916709,39.2746554]},"properties":{"osmType":"node","osmId":11168593094,"operator":"Expedient","owner":"","address":"","city":"","state":"","postcode":"","website":"https://www.expedient.com/data-centers/baltimore/","status":"existing","startDate":"","clli":"","coverage":"community_reported","capacityMw":null},"sourceRef":"openstreetmap-overpass"},{"id":"osm-node-11400893880","type":"data_center","name":"Flexential - Denver - Centennial Data Center","geometry":{"type":"Point","coordinates":[-104.8431597,39.5938733]},"properties":{"osmType":"node","osmId":11400893880,"operator":"Flexential","owner":"","address":"12500 East Arapahoe Road, Centennial, CO, 80112","city":"Centennial","state":"CO","postcode":"80112","website":"https://www.flexential.com/data-centers/co/denver/centennial-data-center","status":"existing","startDate":"","clli":"","coverage":"community_reported","capacityMw":null},"sourceRef":"openstreetmap-overpass"},{"id":"osm-node-11666916913","type":"data_center","name":"EdgeConneX Data Center","geometry":{"type":"Point","coordinates":[-111.9700762,33.3955855]},"properties":{"osmType":"node","osmId":11666916913,"operator":"EdgeConneX","owner":"","address":"","city":"","state":"","postcode":"","website":"","status":"existing","startDate":"","clli":"","coverage":"community_reported","capacityMw":null},"sourceRef":"openstreetmap-overpass"},{"id":"osm-node-11815482844","type":"data_center","name":"Unnamed data center","geometry":{"type":"Point","coordinates":[-83.6276287,41.8072817]},"properties":{"osmType":"node","osmId":11815482844,"operator":"","owner":"","address":"","city":"","state":"","postcode":"","website":"","status":"existing","startDate":"","clli":"","coverage":"community_reported","capacityMw":null},"sourceRef":"openstreetmap-overpass"},{"id":"osm-node-11924506303","type":"data_center","name":"IT","geometry":{"type":"Point","coordinates":[-117.5030207,33.9102899]},"properties":{"osmType":"node","osmId":11924506303,"operator":"","owner":"","address":"","city":"","state":"","postcode":"","website":"","status":"existing","startDate":"","clli":"","coverage":"community_reported","capacityMw":null},"sourceRef":"openstreetmap-overpass"},{"id":"osm-node-11938614120","type":"data_center","name":"Alembic Computer Services, Inc.","geometry":{"type":"Point","coordinates":[-111.9773353,33.4051307]},"properties":{"osmType":"node","osmId":11938614120,"operator":"","owner":"","address":"","city":"","state":"","postcode":"","website":"","status":"existing","startDate":"","clli":"","coverage":"community_reported","capacityMw":null},"sourceRef":"openstreetmap-overpass"},{"id":"osm-node-11938631189","type":"data_center","name":"J-Curve Technologies","geometry":{"type":"Point","coordinates":[-111.9711539,33.4131856]},"properties":{"osmType":"node","osmId":11938631189,"operator":"","owner":"","address":"","city":"","state":"","postcode":"","website":"","status":"existing","startDate":"","clli":"","coverage":"community_reported","capacityMw":null},"sourceRef":"openstreetmap-overpass"},{"id":"osm-node-12112201416","type":"data_center","name":"Flexential Cincinnati","geometry":{"type":"Point","coordinates":[-84.4494638,39.3159313]},"properties":{"osmType":"node","osmId":12112201416,"operator":"Flexential","owner":"","address":"5307 Mulhauser Road, West Chester, OH, 45011","city":"West Chester","state":"OH","postcode":"45011","website":"","status":"existing","startDate":"","clli":"","coverage":"community_reported","capacityMw":null},"sourceRef":"openstreetmap-overpass"},{"id":"osm-node-12112236372","type":"data_center","name":"Flexential Denver - Downtown","geometry":{"type":"Point","coordinates":[-104.9941589,39.7459702]},"properties":{"osmType":"node","osmId":12112236372,"operator":"Flexential","owner":"","address":"1500 Champa Street, Denver, CO, 80202","city":"Denver","state":"CO","postcode":"80202","website":"https://www.flexential.com/data-centers/co/denver/downtown-data-center","status":"existing","startDate":"","clli":"","coverage":"community_reported","capacityMw":null},"sourceRef":"openstreetmap-overpass"},{"id":"osm-node-12112238944","type":"data_center","name":"Flexential Dallas - Downtown Dallas","geometry":{"type":"Point","coordinates":[-96.8193707,32.8004101]},"properties":{"osmType":"node","osmId":12112238944,"operator":"Flexential","owner":"","address":"1950 North Stemmons Freeway, Dallas, TX, 75207","city":"Dallas","state":"TX","postcode":"75207","website":"https://www.flexential.com/data-centers/tx/dallas/downtown-data-center","status":"existing","startDate":"","clli":"","coverage":"community_reported","capacityMw":null},"sourceRef":"openstreetmap-overpass"},{"id":"osm-node-12112266917","type":"data_center","name":"Flexential Jacksonville","geometry":{"type":"Point","coordinates":[-81.5817226,30.2457482]},"properties":{"osmType":"node","osmId":12112266917,"operator":"Flexential","owner":"","address":"4905 Belfort Road, Jacksonville, FL, 32256","city":"Jacksonville","state":"FL","postcode":"32256","website":"https://www.flexential.com/data-centers/fl/jacksonville/data-center","status":"existing","startDate":"","clli":"","coverage":"community_reported","capacityMw":null},"sourceRef":"openstreetmap-overpass"},{"id":"osm-node-12112270180","type":"data_center","name":"Flexential - Denver - Aurora","geometry":{"type":"Point","coordinates":[-104.8488321,39.6610488]},"properties":{"osmType":"node","osmId":12112270180,"operator":"Flexential","owner":"","address":"11900 East Cornell Avenue, Aurora, CO, 80014","city":"Aurora","state":"CO","postcode":"80014","website":"","status":"existing","startDate":"","clli":"","coverage":"community_reported","capacityMw":null},"sourceRef":"openstreetmap-overpass"},{"id":"osm-node-12112295055","type":"data_center","name":"Flexential Nashville - Brentwood","geometry":{"type":"Point","coordinates":[-86.8084949,35.9727294]},"properties":{"osmType":"node","osmId":12112295055,"operator":"Flexential","owner":"","address":"7100 Commerce Way, Brentwood, TN, 37027","city":"Brentwood","state":"TN","postcode":"37027","website":"https://www.flexential.com/data-centers/tn/nashville/brentwood-data-center","status":"existing","startDate":"","clli":"","coverage":"community_reported","capacityMw":null},"sourceRef":"openstreetmap-overpass"},{"id":"osm-node-12112361725","type":"data_center","name":"Flexential Raleigh","geometry":{"type":"Point","coordinates":[-78.8291431,35.8505281]},"properties":{"osmType":"node","osmId":12112361725,"operator":"Flexential","owner":"","address":"5150 McCrimmon Parkway, Morrisville, NC, 27560","city":"Morrisville","state":"NC","postcode":"27560","website":"https://www.flexential.com/data-centers/nc/raleigh/data-center","status":"existing","startDate":"","clli":"","coverage":"community_reported","capacityMw":null},"sourceRef":"openstreetmap-overpass"},{"id":"osm-node-12112380995","type":"data_center","name":"Flexential Tampa - West","geometry":{"type":"Point","coordinates":[-82.5399781,28.0372991]},"properties":{"osmType":"node","osmId":12112380995,"operator":"Flexential","owner":"","address":"9417 Corporate Lake Drive, Tampa, FL, 33634","city":"Tampa","state":"FL","postcode":"33634","website":"","status":"existing","startDate":"","clli":"","coverage":"community_reported","capacityMw":null},"sourceRef":"openstreetmap-overpass"},{"id":"osm-node-12112382397","type":"data_center","name":"Flexential Salt Lake City - Lindon","geometry":{"type":"Point","coordinates":[-111.7278754,40.332648]},"properties":{"osmType":"node","osmId":12112382397,"operator":"Flexential","owner":"","address":"333 South 520 West, Lindon, UT, 84042","city":"Lindon","state":"UT","postcode":"84042","website":"https://www.flexential.com/data-centers/ut/salt-lake-city/lindon-data-center","status":"existing","startDate":"","clli":"","coverage":"community_reported","capacityMw":null},"sourceRef":"openstreetmap-overpass"},{"id":"osm-node-12221811811","type":"data_center","name":"Digital Realty New York JFK13","geometry":{"type":"Point","coordinates":[-74.0044583,40.719928]},"properties":{"osmType":"node","osmId":12221811811,"operator":"Digital Realty","owner":"","address":"32 Avenue of the Americas, New York, NY, 10013","city":"New York","state":"NY","postcode":"10013","website":"https://www.digitalrealty.com/data-centers/americas/new-york/jfk13","status":"existing","startDate":"","clli":"","coverage":"community_reported","capacityMw":null},"sourceRef":"openstreetmap-overpass"},{"id":"osm-node-12221880448","type":"data_center","name":"Digital Realty New York JFK12","geometry":{"type":"Point","coordinates":[-74.0084414,40.7176766]},"properties":{"osmType":"node","osmId":12221880448,"operator":"Digital Realty","owner":"","address":"60 Hudson Street, New York, NY, 10013","city":"New York","state":"NY","postcode":"10013","website":"https://www.digitalrealty.com/data-centers/americas/new-york/jfk12","status":"existing","startDate":"","clli":"","coverage":"community_reported","capacityMw":null},"sourceRef":"openstreetmap-overpass"},{"id":"osm-node-12331366645","type":"data_center","name":"CoreSite AT1","geometry":{"type":"Point","coordinates":[-84.3911712,33.7559857]},"properties":{"osmType":"node","osmId":12331366645,"operator":"CoreSite","owner":"","address":"55 Marietta Street, Atlanta, GA, 30303","city":"Atlanta","state":"GA","postcode":"30303","website":"https://www.coresite.com/data-center/at1-atlanta-ga","status":"existing","startDate":"","clli":"","coverage":"community_reported","capacityMw":null},"sourceRef":"openstreetmap-overpass"},{"id":"osm-node-12387534800","type":"data_center","name":"UNM Data Center","geometry":{"type":"Point","coordinates":[-106.6153476,35.0867385]},"properties":{"osmType":"node","osmId":12387534800,"operator":"UNM","owner":"","address":"2701 Campus Boulevard Northeast, Albuquerque, NM, 87106","city":"Albuquerque","state":"NM","postcode":"87106","website":"","status":"existing","startDate":"","clli":"","coverage":"community_reported","capacityMw":null},"sourceRef":"openstreetmap-overpass"},{"id":"osm-node-12437277166","type":"data_center","name":"Prime Santa Clara","geometry":{"type":"Point","coordinates":[-121.9628653,37.3666621]},"properties":{"osmType":"node","osmId":12437277166,"operator":"Prime","owner":"","address":"2215 Martin Avenue","city":"","state":"","postcode":"","website":"https://primedatacenters.com/santa-clara-data-centers/","status":"existing","startDate":"","clli":"","coverage":"community_reported","capacityMw":null},"sourceRef":"openstreetmap-overpass"},{"id":"osm-node-12452254071","type":"data_center","name":"Open Data Centers Piscataway","geometry":{"type":"Point","coordinates":[-74.4568563,40.5503501]},"properties":{"osmType":"node","osmId":12452254071,"operator":"","owner":"","address":"","city":"","state":"","postcode":"","website":"","status":"existing","startDate":"","clli":"","coverage":"community_reported","capacityMw":null},"sourceRef":"openstreetmap-overpass"},{"id":"osm-node-12471740457","type":"data_center","name":"H5 Secaucus","geometry":{"type":"Point","coordinates":[-74.0750122,40.7853948]},"properties":{"osmType":"node","osmId":12471740457,"operator":"H5","owner":"","address":"","city":"","state":"","postcode":"","website":"","status":"existing","startDate":"","clli":"","coverage":"community_reported","capacityMw":null},"sourceRef":"openstreetmap-overpass"},{"id":"osm-node-12550746951","type":"data_center","name":"Forescout Technologies, Inc.","geometry":{"type":"Point","coordinates":[-121.9474176,37.3228675]},"properties":{"osmType":"node","osmId":12550746951,"operator":"","owner":"","address":"300 Santana Row, San Jose, CA, 95128","city":"San Jose","state":"CA","postcode":"95128","website":"https://www.forescout.com/","status":"existing","startDate":"","clli":"","coverage":"community_reported","capacityMw":null},"sourceRef":"openstreetmap-overpass"},{"id":"osm-node-12682482760","type":"data_center","name":"Lumen Albany 4","geometry":{"type":"Point","coordinates":[-73.818665,42.7356308]},"properties":{"osmType":"node","osmId":12682482760,"operator":"Lumen Technologies","owner":"","address":"10 Airline Drive, Albany, NY, 12205","city":"Albany","state":"NY","postcode":"12205","website":"","status":"existing","startDate":"","clli":"","coverage":"community_reported","capacityMw":null},"sourceRef":"openstreetmap-overpass"},{"id":"osm-node-12695496267","type":"data_center","name":"Equinix Chicago Data Center - CH1","geometry":{"type":"Point","coordinates":[-87.6180475,41.8535578]},"properties":{"osmType":"node","osmId":12695496267,"operator":"Equinix","owner":"","address":"350 East Cermak Road, Chicago, IL, 60616","city":"Chicago","state":"IL","postcode":"60616","website":"https://www.equinix.com/data-centers/americas-colocation/united-states-colocation/chicago-data-centers/ch1","status":"existing","startDate":"","clli":"","coverage":"community_reported","capacityMw":null},"sourceRef":"openstreetmap-overpass"},{"id":"osm-node-12708029111","type":"data_center","name":"501 West","geometry":{"type":"Point","coordinates":[-74.6688514,40.315558]},"properties":{"osmType":"node","osmId":12708029111,"operator":"","owner":"","address":"501 Farber Road, Princeton, NJ, 08540","city":"Princeton","state":"NJ","postcode":"08540","website":"","status":"existing","startDate":"","clli":"","coverage":"community_reported","capacityMw":null},"sourceRef":"openstreetmap-overpass"},{"id":"osm-node-12766117170","type":"data_center","name":"Dataverge","geometry":{"type":"Point","coordinates":[-74.0048163,40.6576957]},"properties":{"osmType":"node","osmId":12766117170,"operator":"Dataverge","owner":"","address":"882 3rd Avenue, Brooklyn, NY","city":"Brooklyn","state":"NY","postcode":"","website":"","status":"existing","startDate":"","clli":"","coverage":"community_reported","capacityMw":null},"sourceRef":"openstreetmap-overpass"},{"id":"osm-node-12793428582","type":"data_center","name":"TulsaConnect DC3","geometry":{"type":"Point","coordinates":[-95.8382826,36.0994735]},"properties":{"osmType":"node","osmId":12793428582,"operator":"","owner":"","address":"","city":"","state":"","postcode":"","website":"","status":"existing","startDate":"","clli":"","coverage":"community_reported","capacityMw":null},"sourceRef":"openstreetmap-overpass"},{"id":"osm-node-13019681063","type":"data_center","name":"Comarch","geometry":{"type":"Point","coordinates":[-111.6352356,33.3566787]},"properties":{"osmType":"node","osmId":13019681063,"operator":"","owner":"","address":"3223 South Ellsworth Road, Mesa, AZ, 85212","city":"Mesa","state":"AZ","postcode":"85212","website":"","status":"existing","startDate":"","clli":"","coverage":"community_reported","capacityMw":null},"sourceRef":"openstreetmap-overpass"},{"id":"osm-node-13042311881","type":"data_center","name":"CoreSite - LA2","geometry":{"type":"Point","coordinates":[-118.2359144,34.0584789]},"properties":{"osmType":"node","osmId":13042311881,"operator":"CoreSite","owner":"","address":"900 North Alameda Street, Los Angeles, CA, 90012","city":"Los Angeles","state":"CA","postcode":"90012","website":"https://www.coresite.com/data-center/la2-los-angeles-ca","status":"existing","startDate":"","clli":"","coverage":"community_reported","capacityMw":null},"sourceRef":"openstreetmap-overpass"},{"id":"osm-node-13154826378","type":"data_center","name":"NTT Ashburn VA7 Data Center","geometry":{"type":"Point","coordinates":[-77.471954,39.0160142]},"properties":{"osmType":"node","osmId":13154826378,"operator":"NTT","owner":"","address":"44371 Gigabit Plaza, Ashburn, VA, 20147","city":"Ashburn","state":"VA","postcode":"20147","website":"https://services.global.ntt/en-us/services-and-products/global-data-centers/global-locations/americas/ashburn-va7-data-center","status":"existing","startDate":"","clli":"","coverage":"community_reported","capacityMw":null},"sourceRef":"openstreetmap-overpass"},{"id":"osm-node-13154826379","type":"data_center","name":"NTT VA11 Data Center","geometry":{"type":"Point","coordinates":[-77.6099636,38.7999731]},"properties":{"osmType":"node","osmId":13154826379,"operator":"NTT","owner":"","address":"7251 Grove Hill Boulevard, Gainesville, VA, 20155","city":"Gainesville","state":"VA","postcode":"20155","website":"https://services.global.ntt/en-us/services-and-products/global-data-centers/global-locations/americas/ashburn-va11-data-center","status":"existing","startDate":"","clli":"","coverage":"community_reported","capacityMw":null},"sourceRef":"openstreetmap-overpass"},{"id":"osm-node-13226718075","type":"data_center","name":"Lumen Madison 1 Data Center","geometry":{"type":"Point","coordinates":[-89.3922794,43.0677161]},"properties":{"osmType":"node","osmId":13226718075,"operator":"Lumen Technologies","owner":"","address":"","city":"","state":"","postcode":"","website":"","status":"existing","startDate":"","clli":"","coverage":"community_reported","capacityMw":null},"sourceRef":"openstreetmap-overpass"},{"id":"osm-node-13311012216","type":"data_center","name":"Fiberhub LAS1","geometry":{"type":"Point","coordinates":[-115.13856,36.065929]},"properties":{"osmType":"node","osmId":13311012216,"operator":"Fiberhub","owner":"","address":"1110 Palms Airport Drive, Las Vegas, NV, 89119","city":"Las Vegas","state":"NV","postcode":"89119","website":"","status":"existing","startDate":"","clli":"","coverage":"community_reported","capacityMw":null},"sourceRef":"openstreetmap-overpass"},{"id":"osm-node-13409186015","type":"data_center","name":"D\u0101Stor: 3400 Horizon Drive","geometry":{"type":"Point","coordinates":[-75.3397205,40.0879189]},"properties":{"osmType":"node","osmId":13409186015,"operator":"","owner":"","address":"3400 Horizon Drive, King of Prussia, PA","city":"King of Prussia","state":"PA","postcode":"","website":"https://dastorllc.com/locations/#horizon","status":"existing","startDate":"","clli":"","coverage":"community_reported","capacityMw":null},"sourceRef":"openstreetmap-overpass"},{"id":"osm-node-13465438761","type":"data_center","name":"Rad Web Hosting","geometry":{"type":"Point","coordinates":[-96.798496,32.7784469]},"properties":{"osmType":"node","osmId":13465438761,"operator":"","owner":"","address":"400 South Akard Street, Dallas, TX, 75202","city":"Dallas","state":"TX","postcode":"75202","website":"","status":"existing","startDate":"","clli":"","coverage":"community_reported","capacityMw":null},"sourceRef":"openstreetmap-overpass"},{"id":"osm-node-13546262077","type":"data_center","name":"Alpha Federal","geometry":{"type":"Point","coordinates":[-81.6961822,38.3531768]},"properties":{"osmType":"node","osmId":13546262077,"operator":"Alpha Innovations","owner":"","address":"2020 Union Carbide Drive, South Charleston, WV, 25303","city":"South Charleston","state":"WV","postcode":"25303","website":"https://myalphainnovations.com/","status":"existing","startDate":"","clli":"","coverage":"community_reported","capacityMw":null},"sourceRef":"openstreetmap-overpass"},{"id":"osm-node-13603878193","type":"data_center","name":"Parsec Data Management","geometry":{"type":"Point","coordinates":[-108.6030144,45.7430786]},"properties":{"osmType":"node","osmId":13603878193,"operator":"","owner":"","address":"","city":"","state":"","postcode":"","website":"","status":"existing","startDate":"","clli":"","coverage":"community_reported","capacityMw":null},"sourceRef":"openstreetmap-overpass"},{"id":"osm-node-13639231258","type":"data_center","name":"Applied Digital","geometry":{"type":"Point","coordinates":[-96.8739403,46.9741721]},"properties":{"osmType":"node","osmId":13639231258,"operator":"","owner":"","address":"6805 County Rd 81 N, Harwood, ND, 58042","city":"Harwood","state":"ND","postcode":"58042","website":"","status":"existing","startDate":"","clli":"","coverage":"community_reported","capacityMw":null},"sourceRef":"openstreetmap-overpass"},{"id":"osm-node-13685576464","type":"data_center","name":"RIC1 DC1","geometry":{"type":"Point","coordinates":[-77.2474761,37.4892338]},"properties":{"osmType":"node","osmId":13685576464,"operator":"Quality Technology Services","owner":"","address":"","city":"","state":"","postcode":"","website":"","status":"existing","startDate":"","clli":"","coverage":"community_reported","capacityMw":null},"sourceRef":"openstreetmap-overpass"},{"id":"osm-node-13685576465","type":"data_center","name":"RIC1 DC2","geometry":{"type":"Point","coordinates":[-77.2462097,37.4886164]},"properties":{"osmType":"node","osmId":13685576465,"operator":"Quality Technology Services","owner":"","address":"","city":"","state":"","postcode":"","website":"","status":"existing","startDate":"","clli":"","coverage":"community_reported","capacityMw":null},"sourceRef":"openstreetmap-overpass"},{"id":"osm-node-13685576466","type":"data_center","name":"RIC1 DC3","geometry":{"type":"Point","coordinates":[-77.2448256,37.4878581]},"properties":{"osmType":"node","osmId":13685576466,"operator":"Quality Technology Services","owner":"","address":"","city":"","state":"","postcode":"","website":"","status":"existing","startDate":"","clli":"","coverage":"community_reported","capacityMw":null},"sourceRef":"openstreetmap-overpass"},{"id":"osm-node-13720841436","type":"data_center","name":"TulsaConnect","geometry":{"type":"Point","coordinates":[-95.989193,36.153294]},"properties":{"osmType":"node","osmId":13720841436,"operator":"","owner":"","address":"","city":"","state":"","postcode":"","website":"","status":"existing","startDate":"","clli":"","coverage":"community_reported","capacityMw":null},"sourceRef":"openstreetmap-overpass"},{"id":"osm-node-13720841437","type":"data_center","name":"Windstream","geometry":{"type":"Point","coordinates":[-95.990514,36.1485011]},"properties":{"osmType":"node","osmId":13720841437,"operator":"","owner":"","address":"","city":"","state":"","postcode":"","website":"","status":"existing","startDate":"","clli":"","coverage":"community_reported","capacityMw":null},"sourceRef":"openstreetmap-overpass"},{"id":"osm-node-13720841438","type":"data_center","name":"TulsaConnect","geometry":{"type":"Point","coordinates":[-95.9908198,36.1484524]},"properties":{"osmType":"node","osmId":13720841438,"operator":"","owner":"","address":"","city":"","state":"","postcode":"","website":"","status":"existing","startDate":"","clli":"","coverage":"community_reported","capacityMw":null},"sourceRef":"openstreetmap-overpass"},{"id":"osm-node-13746843366","type":"data_center","name":"Digital Fortress - Portland 1","geometry":{"type":"Point","coordinates":[-122.6817537,45.5212569]},"properties":{"osmType":"node","osmId":13746843366,"operator":"Digital Fortress, Inc","owner":"","address":"511 Southwest 10th Avenue, Portland, OR, 97205","city":"Portland","state":"OR","postcode":"97205","website":"","status":"existing","startDate":"","clli":"","coverage":"community_reported","capacityMw":null},"sourceRef":"openstreetmap-overpass"},{"id":"osm-node-13746843367","type":"data_center","name":"Digital Fortress - Portland 2","geometry":{"type":"Point","coordinates":[-122.7760868,45.4762137]},"properties":{"osmType":"node","osmId":13746843367,"operator":"Digital Fortress, Inc","owner":"","address":"9705 Southwest Sunshine Court, Beaverton, OR, 97005","city":"Beaverton","state":"OR","postcode":"97005","website":"","status":"existing","startDate":"","clli":"","coverage":"community_reported","capacityMw":null},"sourceRef":"openstreetmap-overpass"},{"id":"osm-node-13746843368","type":"data_center","name":"Digital Fortress - Portland 3","geometry":{"type":"Point","coordinates":[-122.7764098,45.475634]},"properties":{"osmType":"node","osmId":13746843368,"operator":"Digital Fortress, Inc","owner":"","address":"9610 Southwest Sunshine Court, Beaverton, OR, 97005","city":"Beaverton","state":"OR","postcode":"97005","website":"","status":"existing","startDate":"","clli":"","coverage":"community_reported","capacityMw":null},"sourceRef":"openstreetmap-overpass"},{"id":"osm-node-13748555787","type":"data_center","name":"H5 DC - Portland","geometry":{"type":"Point","coordinates":[-122.6837652,45.5316902]},"properties":{"osmType":"node","osmId":13748555787,"operator":"H5 Data Centers","owner":"","address":"1233 Northwest 12th Avenue, Portland, OR, 97209","city":"Portland","state":"OR","postcode":"97209","website":"https://h5datacenters.com/portland-data-center.html","status":"existing","startDate":"","clli":"","coverage":"community_reported","capacityMw":null},"sourceRef":"openstreetmap-overpass"},{"id":"osm-node-13748859030","type":"data_center","name":"Date Center West - Eugene","geometry":{"type":"Point","coordinates":[-123.0929782,44.0506071]},"properties":{"osmType":"node","osmId":13748859030,"operator":"Data Center West, Inc.","owner":"","address":"800 Willamette Street, Eugene, OR, 97401","city":"Eugene","state":"OR","postcode":"97401","website":"","status":"existing","startDate":"","clli":"","coverage":"community_reported","capacityMw":null},"sourceRef":"openstreetmap-overpass"},{"id":"osm-node-13860564221","type":"data_center","name":"QTS Ashburn 2","geometry":{"type":"Point","coordinates":[-77.4491455,38.9982397]},"properties":{"osmType":"node","osmId":13860564221,"operator":"Quality Technology Services","owner":"","address":"22280 Randolph Drive, Sterling, VA, 20166","city":"Sterling","state":"VA","postcode":"20166","website":"","status":"existing","startDate":"","clli":"","coverage":"community_reported","capacityMw":null},"sourceRef":"openstreetmap-overpass"},{"id":"osm-node-13873419223","type":"data_center","name":"OCOSA","geometry":{"type":"Point","coordinates":[-95.989191,36.153287]},"properties":{"osmType":"node","osmId":13873419223,"operator":"","owner":"","address":"","city":"","state":"","postcode":"","website":"","status":"existing","startDate":"","clli":"","coverage":"community_reported","capacityMw":null},"sourceRef":"openstreetmap-overpass"},{"id":"osm-node-13891340203","type":"data_center","name":"Vantage VA16","geometry":{"type":"Point","coordinates":[-77.4406368,38.9985084]},"properties":{"osmType":"node","osmId":13891340203,"operator":"","owner":"","address":"22321 Pacific Boulevard, Sterling, VA, 20166","city":"Sterling","state":"VA","postcode":"20166","website":"","status":"existing","startDate":"","clli":"","coverage":"community_reported","capacityMw":null},"sourceRef":"openstreetmap-overpass"},{"id":"osm-node-13891340204","type":"data_center","name":"Vantage VA15","geometry":{"type":"Point","coordinates":[-77.4417901,38.9994047]},"properties":{"osmType":"node","osmId":13891340204,"operator":"","owner":"","address":"22321 Pacific Boulevard, Sterling, VA, 20166","city":"Sterling","state":"VA","postcode":"20166","website":"","status":"existing","startDate":"","clli":"","coverage":"community_reported","capacityMw":null},"sourceRef":"openstreetmap-overpass"},{"id":"osm-node-13908533343","type":"data_center","name":"Iron City No. 1 Power Generator and Compute Center","geometry":{"type":"Point","coordinates":[-78.0974055,41.1410436]},"properties":{"osmType":"node","osmId":13908533343,"operator":"","owner":"","address":"3160 Paul Hoddman Road, Karthaus, PA","city":"Karthaus","state":"PA","postcode":"","website":"","status":"existing","startDate":"","clli":"","coverage":"community_reported","capacityMw":null},"sourceRef":"openstreetmap-overpass"},{"id":"osm-node-1825907839","type":"data_center","name":"Southwest Cyberport","geometry":{"type":"Point","coordinates":[-106.5893487,35.1032925]},"properties":{"osmType":"node","osmId":1825907839,"operator":"","owner":"","address":"5021 Indian School Road Northeast, Albuquerque, NM, 87110","city":"Albuquerque","state":"NM","postcode":"87110","website":"https://www.swcp.com/","status":"existing","startDate":"","clli":"","coverage":"community_reported","capacityMw":null},"sourceRef":"openstreetmap-overpass"},{"id":"osm-node-2607827436","type":"data_center","name":"SDSU Computer Room","geometry":{"type":"Point","coordinates":[-117.070888,32.7750252]},"properties":{"osmType":"node","osmId":2607827436,"operator":"","owner":"","address":"","city":"","state":"","postcode":"","website":"","status":"existing","startDate":"","clli":"","coverage":"community_reported","capacityMw":null},"sourceRef":"openstreetmap-overpass"},{"id":"osm-node-3406467087","type":"data_center","name":"NocRoom Miami IT Services","geometry":{"type":"Point","coordinates":[-80.3177484,25.7915453]},"properties":{"osmType":"node","osmId":3406467087,"operator":"","owner":"","address":"","city":"","state":"","postcode":"","website":"https://nocroom.com","status":"existing","startDate":"","clli":"","coverage":"community_reported","capacityMw":null},"sourceRef":"openstreetmap-overpass"},{"id":"osm-node-3406476814","type":"data_center","name":"NocRoom Miami IT Services","geometry":{"type":"Point","coordinates":[-80.4234346,25.6465617]},"properties":{"osmType":"node","osmId":3406476814,"operator":"","owner":"","address":"","city":"","state":"","postcode":"","website":"https://nocroom.com","status":"existing","startDate":"","clli":"","coverage":"community_reported","capacityMw":null},"sourceRef":"openstreetmap-overpass"},{"id":"osm-node-3468203102","type":"data_center","name":"Center for Computation & Technology (CCT)","geometry":{"type":"Point","coordinates":[-91.1725454,30.407446]},"properties":{"osmType":"node","osmId":3468203102,"operator":"","owner":"","address":"","city":"","state":"","postcode":"","website":"","status":"existing","startDate":"","clli":"","coverage":"community_reported","capacityMw":null},"sourceRef":"openstreetmap-overpass"},{"id":"osm-node-3732415309","type":"data_center","name":"The Pittock Internet Exchange","geometry":{"type":"Point","coordinates":[-122.680562,45.5214248]},"properties":{"osmType":"node","osmId":3732415309,"operator":"Alco Properties","owner":"","address":"921 Southwest Washington Street, Portland, OR, 97205","city":"Portland","state":"OR","postcode":"97205","website":"http://www.pittock.com/","status":"existing","startDate":"","clli":"","coverage":"community_reported","capacityMw":null},"sourceRef":"openstreetmap-overpass"},{"id":"osm-node-4879481820","type":"data_center","name":"Google Fiber","geometry":{"type":"Point","coordinates":[-84.3668585,33.7715677]},"properties":{"osmType":"node","osmId":4879481820,"operator":"Google","owner":"","address":"","city":"","state":"","postcode":"","website":"","status":"existing","startDate":"","clli":"","coverage":"community_reported","capacityMw":null},"sourceRef":"openstreetmap-overpass"},{"id":"osm-node-5146323411","type":"data_center","name":"Open Computing Facility","geometry":{"type":"Point","coordinates":[-122.2598231,37.8698521]},"properties":{"osmType":"node","osmId":5146323411,"operator":"","owner":"","address":"","city":"","state":"","postcode":"","website":"https://www.ocf.berkeley.edu/","status":"existing","startDate":"","clli":"","coverage":"community_reported","capacityMw":null},"sourceRef":"openstreetmap-overpass"},{"id":"osm-node-5225685660","type":"data_center","name":"Lumos Networks","geometry":{"type":"Point","coordinates":[-79.1427063,37.415688]},"properties":{"osmType":"node","osmId":5225685660,"operator":"","owner":"","address":"","city":"","state":"","postcode":"","website":"","status":"existing","startDate":"","clli":"","coverage":"community_reported","capacityMw":null},"sourceRef":"openstreetmap-overpass"},{"id":"osm-node-6401035673","type":"data_center","name":"Rack59 Data Center","geometry":{"type":"Point","coordinates":[-97.6497453,35.4672049]},"properties":{"osmType":"node","osmId":6401035673,"operator":"","owner":"","address":"7725 West Reno Avenue, Oklahoma CIty, OK, 73127","city":"Oklahoma CIty","state":"OK","postcode":"73127","website":"","status":"existing","startDate":"","clli":"","coverage":"community_reported","capacityMw":null},"sourceRef":"openstreetmap-overpass"},{"id":"osm-node-6625492701","type":"data_center","name":"Oso Grande","geometry":{"type":"Point","coordinates":[-106.6536712,35.0925015]},"properties":{"osmType":"node","osmId":6625492701,"operator":"Oso Grande","owner":"","address":"725 6th Street Northwest, Albuquerque, NM, 87102","city":"Albuquerque","state":"NM","postcode":"87102","website":"","status":"existing","startDate":"","clli":"","coverage":"community_reported","capacityMw":null},"sourceRef":"openstreetmap-overpass"},{"id":"osm-node-6793837329","type":"data_center","name":"Morgan Wireless","geometry":{"type":"Point","coordinates":[-78.2253196,39.6309851]},"properties":{"osmType":"node","osmId":6793837329,"operator":"","owner":"","address":"303 North Washington Street, Bath (Berkeley Springs), WV, 25411","city":"Bath (Berkeley Springs)","state":"WV","postcode":"25411","website":"https://www.morganwireless.net","status":"existing","startDate":"","clli":"","coverage":"community_reported","capacityMw":null},"sourceRef":"openstreetmap-overpass"},{"id":"osm-node-6856057098","type":"data_center","name":"VIRTBIZ","geometry":{"type":"Point","coordinates":[-96.7828145,32.7825463]},"properties":{"osmType":"node","osmId":6856057098,"operator":"","owner":"","address":"2805 Canton Street, Dallas, TX, 75226","city":"Dallas","state":"TX","postcode":"75226","website":"https://www.virtbiz.com/","status":"existing","startDate":"","clli":"","coverage":"community_reported","capacityMw":null},"sourceRef":"openstreetmap-overpass"},{"id":"osm-node-7171975407","type":"data_center","name":"FirstLight Data Center","geometry":{"type":"Point","coordinates":[-70.2613785,43.6578388]},"properties":{"osmType":"node","osmId":7171975407,"operator":"FirstLight","owner":"","address":"340 Cumberland Avenue, Portland, ME, 04101","city":"Portland","state":"ME","postcode":"04101","website":"https://www.firstlight.net/products/data-center/portland-me-data-center/","status":"existing","startDate":"","clli":"","coverage":"community_reported","capacityMw":null},"sourceRef":"openstreetmap-overpass"},{"id":"osm-node-7264976228","type":"data_center","name":"Learning GIS!","geometry":{"type":"Point","coordinates":[-86.9141546,40.42179]},"properties":{"osmType":"node","osmId":7264976228,"operator":"","owner":"","address":"","city":"","state":"","postcode":"","website":"","status":"existing","startDate":"","clli":"","coverage":"community_reported","capacityMw":null},"sourceRef":"openstreetmap-overpass"},{"id":"osm-node-7264976991","type":"data_center","name":"Agricultural and Biological Engineering","geometry":{"type":"Point","coordinates":[-86.9165454,40.4218543]},"properties":{"osmType":"node","osmId":7264976991,"operator":"","owner":"","address":"","city":"","state":"","postcode":"","website":"","status":"existing","startDate":"","clli":"","coverage":"community_reported","capacityMw":null},"sourceRef":"openstreetmap-overpass"},{"id":"osm-node-7324132050","type":"data_center","name":"Windstream Communications","geometry":{"type":"Point","coordinates":[-78.851552,35.881397]},"properties":{"osmType":"node","osmId":7324132050,"operator":"","owner":"","address":"5400 South Miami Boulevard, Durham, NC, 27703","city":"Durham","state":"NC","postcode":"27703","website":"","status":"existing","startDate":"","clli":"","coverage":"community_reported","capacityMw":null},"sourceRef":"openstreetmap-overpass"},{"id":"osm-node-7324132051","type":"data_center","name":"Level 3 Communications","geometry":{"type":"Point","coordinates":[-78.8515726,35.881364]},"properties":{"osmType":"node","osmId":7324132051,"operator":"","owner":"","address":"5400 South Miami Boulevard, Durham, NC, 27703","city":"Durham","state":"NC","postcode":"27703","website":"","status":"existing","startDate":"","clli":"","coverage":"community_reported","capacityMw":null},"sourceRef":"openstreetmap-overpass"},{"id":"osm-node-751881301","type":"data_center","name":"CoreSite DC1","geometry":{"type":"Point","coordinates":[-77.0291491,38.9028879]},"properties":{"osmType":"node","osmId":751881301,"operator":"CoreSite","owner":"","address":"1275 K Street Northwest","city":"","state":"","postcode":"","website":"https://www.coresite.com/data-center/dc1-washington-d-c","status":"existing","startDate":"","clli":"WASHDC12","coverage":"community_reported","capacityMw":null},"sourceRef":"openstreetmap-overpass"},{"id":"osm-node-7557854384","type":"data_center","name":"OptimumHQ","geometry":{"type":"Point","coordinates":[-111.7526684,33.3804149]},"properties":{"osmType":"node","osmId":7557854384,"operator":"","owner":"","address":"1955 South Val Vista Drive, Mesa, AZ, 85206","city":"Mesa","state":"AZ","postcode":"85206","website":"","status":"existing","startDate":"","clli":"","coverage":"community_reported","capacityMw":null},"sourceRef":"openstreetmap-overpass"},{"id":"osm-node-7557868585","type":"data_center","name":"The Chatfield Group","geometry":{"type":"Point","coordinates":[-111.7528888,33.380601]},"properties":{"osmType":"node","osmId":7557868585,"operator":"","owner":"","address":"1955 South Val Vista Drive, Mesa, AZ, 85206","city":"Mesa","state":"AZ","postcode":"85206","website":"","status":"existing","startDate":"","clli":"","coverage":"community_reported","capacityMw":null},"sourceRef":"openstreetmap-overpass"},{"id":"osm-node-7578821329","type":"data_center","name":"All About Serving Process Server","geometry":{"type":"Point","coordinates":[-111.809686,33.3199157]},"properties":{"osmType":"node","osmId":7578821329,"operator":"","owner":"","address":"1909 East Ray Road, Chandler, AZ, 85225","city":"Chandler","state":"AZ","postcode":"85225","website":"","status":"existing","startDate":"","clli":"","coverage":"community_reported","capacityMw":null},"sourceRef":"openstreetmap-overpass"},{"id":"osm-node-7737996606","type":"data_center","name":"Emailage","geometry":{"type":"Point","coordinates":[-111.8405386,33.302965]},"properties":{"osmType":"node","osmId":7737996606,"operator":"","owner":"","address":"","city":"","state":"","postcode":"","website":"","status":"existing","startDate":"","clli":"","coverage":"community_reported","capacityMw":null},"sourceRef":"openstreetmap-overpass"},{"id":"osm-node-7821940847","type":"data_center","name":"Alliance Technology","geometry":{"type":"Point","coordinates":[-111.728405,33.3799862]},"properties":{"osmType":"node","osmId":7821940847,"operator":"","owner":"","address":"4850 East Baseline Road, Mesa, AZ, 85206","city":"Mesa","state":"AZ","postcode":"85206","website":"","status":"existing","startDate":"","clli":"","coverage":"community_reported","capacityMw":null},"sourceRef":"openstreetmap-overpass"},{"id":"osm-node-7985753364","type":"data_center","name":"8100 Boone Boulevard","geometry":{"type":"Point","coordinates":[-77.2258825,38.9137236]},"properties":{"osmType":"node","osmId":7985753364,"operator":"Digital Realty","owner":"Digital Realty","address":"8100 Boone Boulevard","city":"","state":"","postcode":"","website":"","status":"existing","startDate":"","clli":"","coverage":"community_reported","capacityMw":null},"sourceRef":"openstreetmap-overpass"},{"id":"osm-node-8017899486","type":"data_center","name":"HiPerGator","geometry":{"type":"Point","coordinates":[-82.2997617,29.6728187]},"properties":{"osmType":"node","osmId":8017899486,"operator":"University of Florida","owner":"","address":"","city":"","state":"","postcode":"","website":"https://www.rc.ufl.edu/services/hipergator/","status":"existing","startDate":"","clli":"","coverage":"community_reported","capacityMw":null},"sourceRef":"openstreetmap-overpass"},{"id":"osm-node-8109664813","type":"data_center","name":"Atlanta ATL13","geometry":{"type":"Point","coordinates":[-84.3914814,33.7555186]},"properties":{"osmType":"node","osmId":8109664813,"operator":"Digital Realty","owner":"","address":"56 Marietta Street, Atlanta, GA, 30303","city":"Atlanta","state":"GA","postcode":"30303","website":"https://www.digitalrealty.com/data-centers/americas/atlanta/atl13","status":"existing","startDate":"","clli":"","coverage":"community_reported","capacityMw":null},"sourceRef":"openstreetmap-overpass"},{"id":"osm-node-8165754026","type":"data_center","name":"Data Holdings Data Center","geometry":{"type":"Point","coordinates":[-87.9539794,43.0439408]},"properties":{"osmType":"node","osmId":8165754026,"operator":"","owner":"Potawatomi Business Development Corporation","address":"3135 West Highland Boulevard, Milwaukee, WI, 53208-3251","city":"Milwaukee","state":"WI","postcode":"53208-3251","website":"","status":"existing","startDate":"","clli":"","coverage":"community_reported","capacityMw":null},"sourceRef":"openstreetmap-overpass"},{"id":"osm-node-8238715059","type":"data_center","name":"STACK Infrastructure","geometry":{"type":"Point","coordinates":[-121.891051,37.4027449]},"properties":{"osmType":"node","osmId":8238715059,"operator":"Stack Infrastructure, Incorporated","owner":"","address":"2150 Trade Zone Boulevard, San Jose, CA, 95131","city":"San Jose","state":"CA","postcode":"95131","website":"","status":"existing","startDate":"","clli":"","coverage":"community_reported","capacityMw":null},"sourceRef":"openstreetmap-overpass"},{"id":"osm-node-8238715061","type":"data_center","name":"STACK Infrastructure","geometry":{"type":"Point","coordinates":[-121.891057,37.4026341]},"properties":{"osmType":"node","osmId":8238715061,"operator":"Stack Infrastructure, Incorporated","owner":"","address":"2150 Trade Zone Boulevard, San Jose, CA, 95131","city":"San Jose","state":"CA","postcode":"95131","website":"","status":"existing","startDate":"","clli":"","coverage":"community_reported","capacityMw":null},"sourceRef":"openstreetmap-overpass"},{"id":"osm-node-8477460442","type":"data_center","name":"Digital West Data Center","geometry":{"type":"Point","coordinates":[-120.6415128,35.2553162]},"properties":{"osmType":"node","osmId":8477460442,"operator":"","owner":"","address":"","city":"","state":"","postcode":"","website":"","status":"existing","startDate":"","clli":"","coverage":"community_reported","capacityMw":null},"sourceRef":"openstreetmap-overpass"},{"id":"osm-node-8641856300","type":"data_center","name":"Chick-fil-A Hiring Center","geometry":{"type":"Point","coordinates":[-82.9883939,42.6279424]},"properties":{"osmType":"node","osmId":8641856300,"operator":"Dennis Sampier","owner":"","address":"","city":"","state":"","postcode":"","website":"","status":"existing","startDate":"","clli":"","coverage":"community_reported","capacityMw":null},"sourceRef":"openstreetmap-overpass"},{"id":"osm-node-8767284091","type":"data_center","name":"Ergonomic Group","geometry":{"type":"Point","coordinates":[-72.5898636,41.7070776]},"properties":{"osmType":"node","osmId":8767284091,"operator":"","owner":"","address":"65 Kreiger Lane, Glastonbury, CT, 06033","city":"Glastonbury","state":"CT","postcode":"06033","website":"https://www.ergogroup.com","status":"existing","startDate":"","clli":"","coverage":"community_reported","capacityMw":null},"sourceRef":"openstreetmap-overpass"},{"id":"osm-node-8897151054","type":"data_center","name":"San Jose Colocation Center","geometry":{"type":"Point","coordinates":[-121.891646,37.3341181]},"properties":{"osmType":"node","osmId":8897151054,"operator":"CoreSite","owner":"","address":"55 South Market Street, San Jose, CA, 95113","city":"San Jose","state":"CA","postcode":"95113","website":"https://www.coresite.com/data-center/sv1-san-jose-ca","status":"existing","startDate":"","clli":"","coverage":"community_reported","capacityMw":null},"sourceRef":"openstreetmap-overpass"},{"id":"osm-node-9092482804","type":"data_center","name":"Amazon Web Services IAD69","geometry":{"type":"Point","coordinates":[-77.4146998,39.0254851]},"properties":{"osmType":"node","osmId":9092482804,"operator":"Amazon Web Services","owner":"","address":"","city":"","state":"","postcode":"","website":"","status":"existing","startDate":"","clli":"","coverage":"community_reported","capacityMw":null},"sourceRef":"openstreetmap-overpass"},{"id":"osm-node-9190480200","type":"data_center","name":"Stream Data Centers Houston","geometry":{"type":"Point","coordinates":[-95.4860464,30.1781365]},"properties":{"osmType":"node","osmId":9190480200,"operator":"","owner":"","address":"4001 Technology Forest Boulevard, The Woodlands, TX, 77381","city":"The Woodlands","state":"TX","postcode":"77381","website":"https://www.streamdatacenters.com/datacenters/houston-the-woodlands/","status":"existing","startDate":"","clli":"","coverage":"community_reported","capacityMw":null},"sourceRef":"openstreetmap-overpass"},{"id":"osm-node-9669340912","type":"data_center","name":"Crown Castle Baltimore","geometry":{"type":"Point","coordinates":[-76.6064893,39.2877017]},"properties":{"osmType":"node","osmId":9669340912,"operator":"Crown Castle Fiber","owner":"","address":"111 Market Place, Baltimore, MD, 21202-4036","city":"Baltimore","state":"MD","postcode":"21202-4036","website":"https://www.crowncastle.com/communities/baltimore-md.aspx","status":"existing","startDate":"","clli":"","coverage":"community_reported","capacityMw":null},"sourceRef":"openstreetmap-overpass"},{"id":"osm-node-9669405859","type":"data_center","name":"AiNET One Market Center","geometry":{"type":"Point","coordinates":[-76.6203737,39.2917583]},"properties":{"osmType":"node","osmId":9669405859,"operator":"AiNET","owner":"","address":"300 West Lexington Street, Baltimore, MD, 21201","city":"Baltimore","state":"MD","postcode":"21201","website":"https://www.ai.net/","status":"existing","startDate":"","clli":"","coverage":"community_reported","capacityMw":null},"sourceRef":"openstreetmap-overpass"},{"id":"osm-node-9669639033","type":"data_center","name":"Lumen McLean","geometry":{"type":"Point","coordinates":[-77.2115713,38.9208538]},"properties":{"osmType":"node","osmId":9669639033,"operator":"Lumen Technologies","owner":"","address":"1755 Old Meadow Road, McLean, VA, 22102","city":"McLean","state":"VA","postcode":"22102","website":"","status":"existing","startDate":"","clli":"","coverage":"community_reported","capacityMw":null},"sourceRef":"openstreetmap-overpass"},{"id":"osm-node-9721703993","type":"data_center","name":"TierPoint Milwaukee","geometry":{"type":"Point","coordinates":[-87.9610618,43.0093779]},"properties":{"osmType":"node","osmId":9721703993,"operator":"","owner":"","address":"","city":"","state":"","postcode":"","website":"","status":"existing","startDate":"","clli":"","coverage":"community_reported","capacityMw":null},"sourceRef":"openstreetmap-overpass"},{"id":"osm-node-9736262934","type":"data_center","name":"Frontier Science","geometry":{"type":"Point","coordinates":[-78.8123836,42.9902011]},"properties":{"osmType":"node","osmId":9736262934,"operator":"","owner":"","address":"4033 Maple Road, Amherst, NY, 14226","city":"Amherst","state":"NY","postcode":"14226","website":"https://www.frontierscience.org","status":"existing","startDate":"","clli":"","coverage":"community_reported","capacityMw":null},"sourceRef":"openstreetmap-overpass"},{"id":"osm-node-9808044830","type":"data_center","name":"505 Marquette","geometry":{"type":"Point","coordinates":[-106.6526456,35.0886289]},"properties":{"osmType":"node","osmId":9808044830,"operator":"","owner":"","address":"505 Marquette Avenue Northwest, Albuquerque, NM, 87102","city":"Albuquerque","state":"NM","postcode":"87102","website":"","status":"existing","startDate":"","clli":"","coverage":"community_reported","capacityMw":null},"sourceRef":"openstreetmap-overpass"},{"id":"osm-node-9808044840","type":"data_center","name":"123 Central","geometry":{"type":"Point","coordinates":[-106.6489853,35.0844494]},"properties":{"osmType":"node","osmId":9808044840,"operator":"bigbyte.cc","owner":"","address":"123 Central Avenue Northwest, Albuquerque, NM","city":"Albuquerque","state":"NM","postcode":"","website":"","status":"existing","startDate":"","clli":"","coverage":"community_reported","capacityMw":null},"sourceRef":"openstreetmap-overpass"},{"id":"osm-node-9861806598","type":"data_center","name":"Unnamed data center","geometry":{"type":"Point","coordinates":[-94.5788209,39.1011816]},"properties":{"osmType":"node","osmId":9861806598,"operator":"","owner":"","address":"","city":"","state":"","postcode":"","website":"","status":"existing","startDate":"","clli":"","coverage":"community_reported","capacityMw":null},"sourceRef":"openstreetmap-overpass"},{"id":"osm-node-9922928085","type":"data_center","name":"Netrality Data Centers","geometry":{"type":"Point","coordinates":[-94.5811452,39.1009071]},"properties":{"osmType":"node","osmId":9922928085,"operator":"","owner":"","address":"1102 Grand Boulevard, Kansas City, MO, 64106","city":"Kansas City","state":"MO","postcode":"64106","website":"https://netrality.com/locations/data-center-kansas-city/","status":"existing","startDate":"","clli":"","coverage":"community_reported","capacityMw":null},"sourceRef":"openstreetmap-overpass"},{"id":"osm-relation-12901583","type":"data_center","name":"Liberty Center One","geometry":{"type":"Point","coordinates":[-83.1774894,42.5334813]},"properties":{"osmType":"relation","osmId":12901583,"operator":"","owner":"","address":"4815 Delemere Avenue, Royal Oak, MI, 48073","city":"Royal Oak","state":"MI","postcode":"48073","website":"https://www.libertycenterone.com/","status":"existing","startDate":"","clli":"","coverage":"community_reported","capacityMw":null},"sourceRef":"openstreetmap-overpass"},{"id":"osm-relation-14593270","type":"data_center","name":"Apple - Maiden Data Center","geometry":{"type":"Point","coordinates":[-81.2623099,35.5887645]},"properties":{"osmType":"relation","osmId":14593270,"operator":"","owner":"","address":"","city":"","state":"","postcode":"","website":"","status":"existing","startDate":"","clli":"","coverage":"community_reported","capacityMw":null},"sourceRef":"openstreetmap-overpass"},{"id":"osm-relation-14930068","type":"data_center","name":"HPC","geometry":{"type":"Point","coordinates":[-106.542801,35.0499451]},"properties":{"osmType":"relation","osmId":14930068,"operator":"Sandia National Laboratories","owner":"","address":"14th Street Southeast","city":"","state":"","postcode":"","website":"","status":"existing","startDate":"","clli":"","coverage":"community_reported","capacityMw":null},"sourceRef":"openstreetmap-overpass"},{"id":"osm-relation-15884451","type":"data_center","name":"Barclays Datacenter","geometry":{"type":"Point","coordinates":[-74.2854476,40.6437889]},"properties":{"osmType":"relation","osmId":15884451,"operator":"Barclays","owner":"","address":"","city":"","state":"","postcode":"","website":"","status":"existing","startDate":"","clli":"","coverage":"community_reported","capacityMw":null},"sourceRef":"openstreetmap-overpass"},{"id":"osm-relation-16282459","type":"data_center","name":"CyberNAP Glen Burnie","geometry":{"type":"Point","coordinates":[-76.6064303,39.1402303]},"properties":{"osmType":"relation","osmId":16282459,"operator":"AiNET","owner":"","address":"","city":"","state":"","postcode":"","website":"","status":"existing","startDate":"","clli":"","coverage":"community_reported","capacityMw":null},"sourceRef":"openstreetmap-overpass"},{"id":"osm-relation-18518989","type":"data_center","name":"Meta Huntsville Data Center","geometry":{"type":"Point","coordinates":[-86.6280217,34.8442568]},"properties":{"osmType":"relation","osmId":18518989,"operator":"Meta","owner":"","address":"","city":"","state":"","postcode":"","website":"https://datacenters.atmeta.com/wp-content/uploads/2023/03/Alabama-Huntsville.pdf","status":"existing","startDate":"2019","clli":"","coverage":"community_reported","capacityMw":null},"sourceRef":"openstreetmap-overpass"},{"id":"osm-relation-19390019","type":"data_center","name":"Dakota Carrier Network","geometry":{"type":"Point","coordinates":[-96.8443142,46.8151017]},"properties":{"osmType":"relation","osmId":19390019,"operator":"","owner":"","address":"","city":"","state":"","postcode":"","website":"","status":"existing","startDate":"","clli":"","coverage":"community_reported","capacityMw":null},"sourceRef":"openstreetmap-overpass"},{"id":"osm-relation-19787207","type":"data_center","name":"Microsoft Data Center 1","geometry":{"type":"Point","coordinates":[-77.5823062,38.8023704]},"properties":{"osmType":"relation","osmId":19787207,"operator":"Microsoft","owner":"","address":"13760 University Boulevard, Gainesville, VA, 20155","city":"Gainesville","state":"VA","postcode":"20155","website":"","status":"existing","startDate":"","clli":"","coverage":"community_reported","capacityMw":null},"sourceRef":"openstreetmap-overpass"},{"id":"osm-relation-2744301","type":"data_center","name":"Verizon","geometry":{"type":"Point","coordinates":[-74.4965213,40.5442554]},"properties":{"osmType":"relation","osmId":2744301,"operator":"","owner":"","address":"","city":"","state":"","postcode":"","website":"","status":"existing","startDate":"","clli":"","coverage":"community_reported","capacityMw":null},"sourceRef":"openstreetmap-overpass"},{"id":"osm-relation-4645970","type":"data_center","name":"OVHcloud - Hillsboro","geometry":{"type":"Point","coordinates":[-122.9558975,45.5340587]},"properties":{"osmType":"relation","osmId":4645970,"operator":"OVHcloud","owner":"","address":"1300 Northeast 25th Avenue, Hillsboro, OR, 97124","city":"Hillsboro","state":"OR","postcode":"97124","website":"https://us.ovhcloud.com/","status":"existing","startDate":"","clli":"","coverage":"community_reported","capacityMw":null},"sourceRef":"openstreetmap-overpass"},{"id":"osm-relation-9474864","type":"data_center","name":"Google Data Center","geometry":{"type":"Point","coordinates":[-81.546278,35.8951471]},"properties":{"osmType":"relation","osmId":9474864,"operator":"Google","owner":"","address":"","city":"","state":"","postcode":"","website":"","status":"existing","startDate":"","clli":"","coverage":"community_reported","capacityMw":null},"sourceRef":"openstreetmap-overpass"},{"id":"osm-way-1000784035","type":"data_center","name":"Amazon Web Services","geometry":{"type":"Point","coordinates":[-77.5333746,38.7430518]},"properties":{"osmType":"way","osmId":1000784035,"operator":"Amazon Web Services","owner":"","address":"9750 Hornbaker Road, Manassas, VA, 20109","city":"Manassas","state":"VA","postcode":"20109","website":"","status":"existing","startDate":"","clli":"","coverage":"community_reported","capacityMw":null},"sourceRef":"openstreetmap-overpass"},{"id":"osm-way-1003348567","type":"data_center","name":"QTS Ashburn-Shellhorn DC1","geometry":{"type":"Point","coordinates":[-77.4754706,38.9980776]},"properties":{"osmType":"way","osmId":1003348567,"operator":"Quality Technology Services","owner":"","address":"","city":"","state":"","postcode":"","website":"","status":"existing","startDate":"","clli":"","coverage":"community_reported","capacityMw":null},"sourceRef":"openstreetmap-overpass"},{"id":"osm-way-1007825570","type":"data_center","name":"QTS Atlanta Data Center 2","geometry":{"type":"Point","coordinates":[-84.4194463,33.7776013]},"properties":{"osmType":"way","osmId":1007825570,"operator":"Quality Technology Services","owner":"","address":"1025 Jefferson Street Northwest, Atlanta, GA, 30318","city":"Atlanta","state":"GA","postcode":"30318","website":"https://www.qtsdatacenters.com/data-centers/atlanta","status":"existing","startDate":"","clli":"","coverage":"community_reported","capacityMw":null},"sourceRef":"openstreetmap-overpass"},{"id":"osm-way-1010260674","type":"data_center","name":"Unnamed data center","geometry":{"type":"Point","coordinates":[-98.7874813,29.4190024]},"properties":{"osmType":"way","osmId":1010260674,"operator":"","owner":"","address":"","city":"","state":"","postcode":"","website":"","status":"existing","startDate":"","clli":"","coverage":"community_reported","capacityMw":null},"sourceRef":"openstreetmap-overpass"},{"id":"osm-way-1010260675","type":"data_center","name":"Microsoft TRP3 (SAT46)","geometry":{"type":"Point","coordinates":[-98.8063744,29.412977]},"properties":{"osmType":"way","osmId":1010260675,"operator":"Microsoft","owner":"","address":"","city":"","state":"","postcode":"","website":"","status":"existing","startDate":"","clli":"","coverage":"community_reported","capacityMw":null},"sourceRef":"openstreetmap-overpass"},{"id":"osm-way-1010260676","type":"data_center","name":"Microsoft","geometry":{"type":"Point","coordinates":[-98.803316,29.4157967]},"properties":{"osmType":"way","osmId":1010260676,"operator":"Microsoft","owner":"","address":"","city":"","state":"","postcode":"","website":"","status":"existing","startDate":"","clli":"","coverage":"community_reported","capacityMw":null},"sourceRef":"openstreetmap-overpass"},{"id":"osm-way-1010260677","type":"data_center","name":"Microsoft","geometry":{"type":"Point","coordinates":[-98.8045148,29.4157956]},"properties":{"osmType":"way","osmId":1010260677,"operator":"Microsoft","owner":"","address":"","city":"","state":"","postcode":"","website":"","status":"existing","startDate":"","clli":"","coverage":"community_reported","capacityMw":null},"sourceRef":"openstreetmap-overpass"},{"id":"osm-way-1011125238","type":"data_center","name":"Pewaukee Data Center","geometry":{"type":"Point","coordinates":[-88.216698,43.0513735]},"properties":{"osmType":"way","osmId":1011125238,"operator":"WE Energies","owner":"","address":"W237N1500 Busse Road, Waukesha, WI, 53188","city":"Waukesha","state":"WI","postcode":"53188","website":"","status":"existing","startDate":"","clli":"","coverage":"community_reported","capacityMw":null},"sourceRef":"openstreetmap-overpass"},{"id":"osm-way-1012918195","type":"data_center","name":"Unnamed data center","geometry":{"type":"Point","coordinates":[-84.2740266,34.060998]},"properties":{"osmType":"way","osmId":1012918195,"operator":"","owner":"","address":"","city":"","state":"","postcode":"","website":"","status":"existing","startDate":"","clli":"","coverage":"community_reported","capacityMw":null},"sourceRef":"openstreetmap-overpass"},{"id":"osm-way-1013396352","type":"data_center","name":"CenturyLink","geometry":{"type":"Point","coordinates":[-115.0626696,36.1829977]},"properties":{"osmType":"way","osmId":1013396352,"operator":"","owner":"","address":"","city":"","state":"","postcode":"","website":"","status":"existing","startDate":"","clli":"","coverage":"community_reported","capacityMw":null},"sourceRef":"openstreetmap-overpass"},{"id":"osm-way-1015704066","type":"data_center","name":"EdgeConneX PHX02 Data Center","geometry":{"type":"Point","coordinates":[-111.6475291,33.3520091]},"properties":{"osmType":"way","osmId":1015704066,"operator":"EdgeConneX","owner":"","address":"8604 East Elliot Road, Mesa, AZ, 85212","city":"Mesa","state":"AZ","postcode":"85212","website":"","status":"existing","startDate":"","clli":"","coverage":"community_reported","capacityMw":null},"sourceRef":"openstreetmap-overpass"},{"id":"osm-way-1015995259","type":"data_center","name":"Amazon IAD601","geometry":{"type":"Point","coordinates":[-77.5571158,38.7788593]},"properties":{"osmType":"way","osmId":1015995259,"operator":"Amazon Web Services","owner":"","address":"","city":"","state":"","postcode":"","website":"","status":"existing","startDate":"","clli":"","coverage":"community_reported","capacityMw":null},"sourceRef":"openstreetmap-overpass"},{"id":"osm-way-1017048670","type":"data_center","name":"Switch Edge 1","geometry":{"type":"Point","coordinates":[-115.213688,36.0591345]},"properties":{"osmType":"way","osmId":1017048670,"operator":"","owner":"","address":"","city":"","state":"","postcode":"","website":"","status":"existing","startDate":"","clli":"","coverage":"community_reported","capacityMw":null},"sourceRef":"openstreetmap-overpass"},{"id":"osm-way-1017460713","type":"data_center","name":"Switch Las Vegas 4","geometry":{"type":"Point","coordinates":[-115.076779,36.143646]},"properties":{"osmType":"way","osmId":1017460713,"operator":"Switch","owner":"","address":"4495 East Sahara Avenue, Las Vegas, NV, 89104","city":"Las Vegas","state":"NV","postcode":"89104","website":"","status":"existing","startDate":"","clli":"","coverage":"community_reported","capacityMw":null},"sourceRef":"openstreetmap-overpass"},{"id":"osm-way-1017460715","type":"data_center","name":"Switch Las Vegas 5","geometry":{"type":"Point","coordinates":[-115.0766965,36.1427635]},"properties":{"osmType":"way","osmId":1017460715,"operator":"Switch","owner":"","address":"4489 East Sahara Avenue, Las Vegas, NV, 89104","city":"Las Vegas","state":"NV","postcode":"89104","website":"","status":"existing","startDate":"","clli":"","coverage":"community_reported","capacityMw":null},"sourceRef":"openstreetmap-overpass"},{"id":"osm-way-1017518460","type":"data_center","name":"T-Mobile Everglades MSO Data Center","geometry":{"type":"Point","coordinates":[-80.2868773,26.1849937]},"properties":{"osmType":"way","osmId":1017518460,"operator":"","owner":"","address":"4850 Northwest 103rd Avenue, Sunrise, FL, 33351","city":"Sunrise","state":"FL","postcode":"33351","website":"","status":"existing","startDate":"","clli":"","coverage":"community_reported","capacityMw":null},"sourceRef":"openstreetmap-overpass"},{"id":"osm-way-1019812125","type":"data_center","name":"EdgeConneX - Portland","geometry":{"type":"Point","coordinates":[-122.9122077,45.5564226]},"properties":{"osmType":"way","osmId":1019812125,"operator":"EdgeConneX","owner":"","address":"6501 Northeast Bennett Street, Hillsboro, OR, 97124","city":"Hillsboro","state":"OR","postcode":"97124","website":"https://www.edgeconnex.com/locations/americas/portland-or/","status":"existing","startDate":"","clli":"","coverage":"community_reported","capacityMw":null},"sourceRef":"openstreetmap-overpass"},{"id":"osm-way-1019816009","type":"data_center","name":"DC Blox Data Center","geometry":{"type":"Point","coordinates":[-86.8208315,33.5006749]},"properties":{"osmType":"way","osmId":1019816009,"operator":"","owner":"","address":"433 6th Street South, Birmingham, AL, 35233","city":"Birmingham","state":"AL","postcode":"35233","website":"https://www.dcblox.com/data-centers/birmingham/","status":"existing","startDate":"","clli":"","coverage":"community_reported","capacityMw":null},"sourceRef":"openstreetmap-overpass"},{"id":"osm-way-1020374277","type":"data_center","name":"Amazon Web Services CMH53","geometry":{"type":"Point","coordinates":[-82.7514553,40.0936164]},"properties":{"osmType":"way","osmId":1020374277,"operator":"Amazon Web Services","owner":"","address":"","city":"","state":"","postcode":"","website":"","status":"existing","startDate":"","clli":"","coverage":"community_reported","capacityMw":null},"sourceRef":"openstreetmap-overpass"},{"id":"osm-way-1020374278","type":"data_center","name":"Amazon Web Services CMH56","geometry":{"type":"Point","coordinates":[-82.7520513,40.0965342]},"properties":{"osmType":"way","osmId":1020374278,"operator":"Amazon Web Services","owner":"","address":"","city":"","state":"","postcode":"","website":"","status":"existing","startDate":"","clli":"","coverage":"community_reported","capacityMw":null},"sourceRef":"openstreetmap-overpass"},{"id":"osm-way-1020374279","type":"data_center","name":"Amazon Web Services CMH59","geometry":{"type":"Point","coordinates":[-82.7474911,40.0940462]},"properties":{"osmType":"way","osmId":1020374279,"operator":"Amazon Web Services","owner":"","address":"","city":"","state":"","postcode":"","website":"","status":"existing","startDate":"","clli":"","coverage":"community_reported","capacityMw":null},"sourceRef":"openstreetmap-overpass"},{"id":"osm-way-1020721870","type":"data_center","name":"Searcy Information Technologies","geometry":{"type":"Point","coordinates":[-91.7409058,35.2492161]},"properties":{"osmType":"way","osmId":1020721870,"operator":"City of Searcy","owner":"","address":"101 North Elm Street, Searcy, AR, 72143","city":"Searcy","state":"AR","postcode":"72143","website":"","status":"existing","startDate":"","clli":"","coverage":"community_reported","capacityMw":null},"sourceRef":"openstreetmap-overpass"},{"id":"osm-way-1020877488","type":"data_center","name":"Amazon Web Services","geometry":{"type":"Point","coordinates":[-77.4712939,38.9958502]},"properties":{"osmType":"way","osmId":1020877488,"operator":"Amazon Web Services","owner":"","address":"","city":"","state":"","postcode":"","website":"","status":"existing","startDate":"","clli":"","coverage":"community_reported","capacityMw":null},"sourceRef":"openstreetmap-overpass"},{"id":"osm-way-1020877489","type":"data_center","name":"Amazon Web Services","geometry":{"type":"Point","coordinates":[-77.4732601,38.9966044]},"properties":{"osmType":"way","osmId":1020877489,"operator":"Amazon Web Services","owner":"","address":"","city":"","state":"","postcode":"","website":"","status":"existing","startDate":"","clli":"","coverage":"community_reported","capacityMw":null},"sourceRef":"openstreetmap-overpass"},{"id":"osm-way-1020953454","type":"data_center","name":"Digital Loudoun Plaza","geometry":{"type":"Point","coordinates":[-77.4851266,39.0048431]},"properties":{"osmType":"way","osmId":1020953454,"operator":"","owner":"Digital Realty","address":"","city":"","state":"","postcode":"","website":"","status":"existing","startDate":"","clli":"","coverage":"community_reported","capacityMw":null},"sourceRef":"openstreetmap-overpass"},{"id":"osm-way-1020953461","type":"data_center","name":"Digital Loudoun Plaza","geometry":{"type":"Point","coordinates":[-77.4823625,39.0016288]},"properties":{"osmType":"way","osmId":1020953461,"operator":"","owner":"Digital Realty","address":"","city":"","state":"","postcode":"","website":"","status":"existing","startDate":"","clli":"","coverage":"community_reported","capacityMw":null},"sourceRef":"openstreetmap-overpass"},{"id":"osm-way-102129663","type":"data_center","name":"H5 Data Centers San Antonio","geometry":{"type":"Point","coordinates":[-98.4869057,29.4293706]},"properties":{"osmType":"way","osmId":102129663,"operator":"H5 Data Centers","owner":"","address":"100 Taylor Street, San Antonio, TX, 78205","city":"San Antonio","state":"TX","postcode":"78205","website":"https://h5datacenters.com/san-antonio-data-center.html","status":"existing","startDate":"","clli":"","coverage":"community_reported","capacityMw":null},"sourceRef":"openstreetmap-overpass"},{"id":"osm-way-1022757170","type":"data_center","name":"Unnamed data center","geometry":{"type":"Point","coordinates":[-77.4259111,38.9848368]},"properties":{"osmType":"way","osmId":1022757170,"operator":"","owner":"","address":"","city":"","state":"","postcode":"","website":"","status":"existing","startDate":"","clli":"","coverage":"community_reported","capacityMw":null},"sourceRef":"openstreetmap-overpass"},{"id":"osm-way-1024051963","type":"data_center","name":"Meta Eagle Mountain Data Center","geometry":{"type":"Point","coordinates":[-112.015101,40.2685879]},"properties":{"osmType":"way","osmId":1024051963,"operator":"Meta","owner":"","address":"","city":"","state":"","postcode":"","website":"","status":"existing","startDate":"","clli":"","coverage":"community_reported","capacityMw":null},"sourceRef":"openstreetmap-overpass"},{"id":"osm-way-1024051997","type":"data_center","name":"Meta Eagle Mountain Data Center","geometry":{"type":"Point","coordinates":[-112.0151297,40.2655638]},"properties":{"osmType":"way","osmId":1024051997,"operator":"Meta","owner":"","address":"","city":"","state":"","postcode":"","website":"","status":"existing","startDate":"","clli":"","coverage":"community_reported","capacityMw":null},"sourceRef":"openstreetmap-overpass"},{"id":"osm-way-1024384322","type":"data_center","name":"Unnamed data center","geometry":{"type":"Point","coordinates":[-94.7683728,38.926806]},"properties":{"osmType":"way","osmId":1024384322,"operator":"","owner":"","address":"15725 College Boulevard, Lenexa, KS, 66219","city":"Lenexa","state":"KS","postcode":"66219","website":"","status":"existing","startDate":"","clli":"","coverage":"community_reported","capacityMw":null},"sourceRef":"openstreetmap-overpass"},{"id":"osm-way-1025002889","type":"data_center","name":"Digital Realty IAD42 (Building R)","geometry":{"type":"Point","coordinates":[-77.4494637,39.0056891]},"properties":{"osmType":"way","osmId":1025002889,"operator":"Digital Realty","owner":"","address":"22125 Broderick Drive, Sterling","city":"Sterling","state":"","postcode":"","website":"","status":"existing","startDate":"","clli":"","coverage":"community_reported","capacityMw":null},"sourceRef":"openstreetmap-overpass"},{"id":"osm-way-1027471509","type":"data_center","name":"Amazon Web Services","geometry":{"type":"Point","coordinates":[-119.6070387,45.8466681]},"properties":{"osmType":"way","osmId":1027471509,"operator":"Amazon Web Services","owner":"Vadata Inc","address":"75288 Lewis and Clark Drive, Boardman, OR, 97818","city":"Boardman","state":"OR","postcode":"97818","website":"","status":"existing","startDate":"","clli":"","coverage":"community_reported","capacityMw":null},"sourceRef":"openstreetmap-overpass"},{"id":"osm-way-1027471510","type":"data_center","name":"Amazon Web Services","geometry":{"type":"Point","coordinates":[-119.6090617,45.8467537]},"properties":{"osmType":"way","osmId":1027471510,"operator":"Amazon Web Services","owner":"Vadata Inc","address":"75282 Lewis and Clark Drive, Boardman, OR, 97818","city":"Boardman","state":"OR","postcode":"97818","website":"","status":"existing","startDate":"","clli":"","coverage":"community_reported","capacityMw":null},"sourceRef":"openstreetmap-overpass"},{"id":"osm-way-1030970564","type":"data_center","name":"Meta Henrico Data Center","geometry":{"type":"Point","coordinates":[-77.2337115,37.4819534]},"properties":{"osmType":"way","osmId":1030970564,"operator":"Meta","owner":"","address":"","city":"","state":"","postcode":"","website":"","status":"existing","startDate":"","clli":"","coverage":"community_reported","capacityMw":null},"sourceRef":"openstreetmap-overpass"},{"id":"osm-way-1034230196","type":"data_center","name":"Unnamed data center","geometry":{"type":"Point","coordinates":[-81.8348651,28.2940687]},"properties":{"osmType":"way","osmId":1034230196,"operator":"","owner":"","address":"16182 Commonwealth Avenue North, Polk City, FL, 33868","city":"Polk City","state":"FL","postcode":"33868","website":"","status":"existing","startDate":"","clli":"","coverage":"community_reported","capacityMw":null},"sourceRef":"openstreetmap-overpass"},{"id":"osm-way-1034475557","type":"data_center","name":"DataBank Las Vegas LAS1","geometry":{"type":"Point","coordinates":[-115.1471723,36.059754]},"properties":{"osmType":"way","osmId":1034475557,"operator":"DataBank","owner":"","address":"7185 Pollock Drive, Las Vegas, NV, 89119","city":"Las Vegas","state":"NV","postcode":"89119","website":"","status":"existing","startDate":"","clli":"","coverage":"community_reported","capacityMw":null},"sourceRef":"openstreetmap-overpass"},{"id":"osm-way-1035123473","type":"data_center","name":"Meta Eagle Mountain Data Center","geometry":{"type":"Point","coordinates":[-112.0150579,40.2723307]},"properties":{"osmType":"way","osmId":1035123473,"operator":"Meta","owner":"","address":"","city":"","state":"","postcode":"","website":"","status":"existing","startDate":"","clli":"","coverage":"community_reported","capacityMw":null},"sourceRef":"openstreetmap-overpass"},{"id":"osm-way-1037871048","type":"data_center","name":"Amazon IAD601","geometry":{"type":"Point","coordinates":[-77.4377755,39.0152596]},"properties":{"osmType":"way","osmId":1037871048,"operator":"Amazon Web Services","owner":"","address":"","city":"","state":"","postcode":"","website":"","status":"existing","startDate":"","clli":"","coverage":"community_reported","capacityMw":null},"sourceRef":"openstreetmap-overpass"},{"id":"osm-way-104082694","type":"data_center","name":"Aureon","geometry":{"type":"Point","coordinates":[-93.6310139,41.5879926]},"properties":{"osmType":"way","osmId":104082694,"operator":"","owner":"","address":"616 10th Street, Des Moines, IA","city":"Des Moines","state":"IA","postcode":"","website":"","status":"existing","startDate":"","clli":"","coverage":"community_reported","capacityMw":null},"sourceRef":"openstreetmap-overpass"},{"id":"osm-way-1042260902","type":"data_center","name":"DirecTV","geometry":{"type":"Point","coordinates":[-110.3047517,31.9726748]},"properties":{"osmType":"way","osmId":1042260902,"operator":"DirecTV","owner":"","address":"401 Direct Way, Benson, AZ, 85602","city":"Benson","state":"AZ","postcode":"85602","website":"","status":"existing","startDate":"","clli":"","coverage":"community_reported","capacityMw":null},"sourceRef":"openstreetmap-overpass"},{"id":"osm-way-1052182309","type":"data_center","name":"Unnamed data center","geometry":{"type":"Point","coordinates":[-112.0705502,33.4933506]},"properties":{"osmType":"way","osmId":1052182309,"operator":"","owner":"","address":"4010 North 3rd Street, Phoenix, AZ, 85012","city":"Phoenix","state":"AZ","postcode":"85012","website":"https://www.4010datacenter.com","status":"existing","startDate":"","clli":"","coverage":"community_reported","capacityMw":null},"sourceRef":"openstreetmap-overpass"},{"id":"osm-way-1054387470","type":"data_center","name":"Meta Stanton Springs Data Center","geometry":{"type":"Point","coordinates":[-83.7003581,33.6004683]},"properties":{"osmType":"way","osmId":1054387470,"operator":"Meta","owner":"","address":"100 Move Fast Way, Social Circle, GA","city":"Social Circle","state":"GA","postcode":"","website":"","status":"existing","startDate":"","clli":"","coverage":"community_reported","capacityMw":null},"sourceRef":"openstreetmap-overpass"},{"id":"osm-way-1054387471","type":"data_center","name":"Meta","geometry":{"type":"Point","coordinates":[-83.7054258,33.6013861]},"properties":{"osmType":"way","osmId":1054387471,"operator":"Meta","owner":"","address":"","city":"","state":"","postcode":"","website":"","status":"existing","startDate":"","clli":"","coverage":"community_reported","capacityMw":null},"sourceRef":"openstreetmap-overpass"},{"id":"osm-way-1056658555","type":"data_center","name":"Flexential Salt Lake City - Millcreek","geometry":{"type":"Point","coordinates":[-111.8850505,40.685569]},"properties":{"osmType":"way","osmId":1056658555,"operator":"Flexential","owner":"","address":"3949 South 200 East, Salt Lake City, UT, 84107","city":"Salt Lake City","state":"UT","postcode":"84107","website":"https://www.flexential.com/data-centers/ut/salt-lake-city/millcreek-data-center","status":"existing","startDate":"","clli":"","coverage":"community_reported","capacityMw":null},"sourceRef":"openstreetmap-overpass"},{"id":"osm-way-1057230915","type":"data_center","name":"Amazon Web Services","geometry":{"type":"Point","coordinates":[-119.6898735,45.8365499]},"properties":{"osmType":"way","osmId":1057230915,"operator":"Amazon Web Services","owner":"Vadata Inc","address":"79392 Olson Road Southeast, Boardman, OR, 97818","city":"Boardman","state":"OR","postcode":"97818","website":"","status":"existing","startDate":"","clli":"","coverage":"community_reported","capacityMw":null},"sourceRef":"openstreetmap-overpass"},{"id":"osm-way-1059030596","type":"data_center","name":"Amazon Web Services","geometry":{"type":"Point","coordinates":[-77.5333323,38.7442865]},"properties":{"osmType":"way","osmId":1059030596,"operator":"Amazon Web Services","owner":"","address":"9740 Hornbaker Road, Manassas, VA, 20109","city":"Manassas","state":"VA","postcode":"20109","website":"","status":"existing","startDate":"","clli":"","coverage":"community_reported","capacityMw":null},"sourceRef":"openstreetmap-overpass"},{"id":"osm-way-1059036248","type":"data_center","name":"Unnamed data center","geometry":{"type":"Point","coordinates":[-77.5375488,38.7459908]},"properties":{"osmType":"way","osmId":1059036248,"operator":"","owner":"","address":"9590 Hornbaker Road, Manassas, VA, 20109","city":"Manassas","state":"VA","postcode":"20109","website":"","status":"existing","startDate":"","clli":"","coverage":"community_reported","capacityMw":null},"sourceRef":"openstreetmap-overpass"},{"id":"osm-way-1059037050","type":"data_center","name":"COPT Innovation Park Data Center","geometry":{"type":"Point","coordinates":[-77.5306249,38.7438863]},"properties":{"osmType":"way","osmId":1059037050,"operator":"Amazon Web Services","owner":"","address":"11120 Thomasson Barn Road, Manassas, VA, 20109","city":"Manassas","state":"VA","postcode":"20109","website":"","status":"existing","startDate":"","clli":"","coverage":"community_reported","capacityMw":null},"sourceRef":"openstreetmap-overpass"},{"id":"osm-way-1059037051","type":"data_center","name":"COPT Data Center Bldg 2","geometry":{"type":"Point","coordinates":[-77.5291961,38.7440549]},"properties":{"osmType":"way","osmId":1059037051,"operator":"Amazon Web Services","owner":"","address":"","city":"","state":"","postcode":"","website":"","status":"existing","startDate":"","clli":"","coverage":"community_reported","capacityMw":null},"sourceRef":"openstreetmap-overpass"},{"id":"osm-way-1064211366","type":"data_center","name":"QTS Ashburn Lockridge","geometry":{"type":"Point","coordinates":[-77.4562445,38.9959297]},"properties":{"osmType":"way","osmId":1064211366,"operator":"Quality Technology Services","owner":"","address":"","city":"","state":"","postcode":"","website":"https://q.com/data-centers/ashburn-2/","status":"existing","startDate":"","clli":"","coverage":"community_reported","capacityMw":null},"sourceRef":"openstreetmap-overpass"},{"id":"osm-way-1065780801","type":"data_center","name":"Amazon","geometry":{"type":"Point","coordinates":[-121.9659908,37.3899287]},"properties":{"osmType":"way","osmId":1065780801,"operator":"Amazon Web Services","owner":"","address":"","city":"","state":"","postcode":"","website":"","status":"existing","startDate":"","clli":"","coverage":"community_reported","capacityMw":null},"sourceRef":"openstreetmap-overpass"},{"id":"osm-way-1069388067","type":"data_center","name":"Google","geometry":{"type":"Point","coordinates":[-80.0382932,33.061987]},"properties":{"osmType":"way","osmId":1069388067,"operator":"Google","owner":"","address":"","city":"","state":"","postcode":"","website":"","status":"existing","startDate":"","clli":"","coverage":"community_reported","capacityMw":null},"sourceRef":"openstreetmap-overpass"},{"id":"osm-way-1069388075","type":"data_center","name":"Google","geometry":{"type":"Point","coordinates":[-80.0396508,33.0621835]},"properties":{"osmType":"way","osmId":1069388075,"operator":"Google","owner":"","address":"","city":"","state":"","postcode":"","website":"","status":"existing","startDate":"","clli":"","coverage":"community_reported","capacityMw":null},"sourceRef":"openstreetmap-overpass"},{"id":"osm-way-1069388095","type":"data_center","name":"Google","geometry":{"type":"Point","coordinates":[-80.0411281,33.0620982]},"properties":{"osmType":"way","osmId":1069388095,"operator":"Google","owner":"","address":"","city":"","state":"","postcode":"","website":"","status":"existing","startDate":"","clli":"","coverage":"community_reported","capacityMw":null},"sourceRef":"openstreetmap-overpass"},{"id":"osm-way-1069388141","type":"data_center","name":"Google","geometry":{"type":"Point","coordinates":[-80.03845,33.0643114]},"properties":{"osmType":"way","osmId":1069388141,"operator":"Google","owner":"","address":"","city":"","state":"","postcode":"","website":"","status":"existing","startDate":"","clli":"","coverage":"community_reported","capacityMw":null},"sourceRef":"openstreetmap-overpass"},{"id":"osm-way-1069388147","type":"data_center","name":"Google","geometry":{"type":"Point","coordinates":[-80.0385236,33.0663558]},"properties":{"osmType":"way","osmId":1069388147,"operator":"Google","owner":"","address":"","city":"","state":"","postcode":"","website":"","status":"existing","startDate":"","clli":"","coverage":"community_reported","capacityMw":null},"sourceRef":"openstreetmap-overpass"},{"id":"osm-way-1069388156","type":"data_center","name":"Google","geometry":{"type":"Point","coordinates":[-80.0436036,33.0641647]},"properties":{"osmType":"way","osmId":1069388156,"operator":"Google","owner":"","address":"","city":"","state":"","postcode":"","website":"","status":"existing","startDate":"","clli":"","coverage":"community_reported","capacityMw":null},"sourceRef":"openstreetmap-overpass"},{"id":"osm-way-1069388186","type":"data_center","name":"Google","geometry":{"type":"Point","coordinates":[-80.0449828,33.0620387]},"properties":{"osmType":"way","osmId":1069388186,"operator":"Google","owner":"","address":"","city":"","state":"","postcode":"","website":"","status":"existing","startDate":"","clli":"","coverage":"community_reported","capacityMw":null},"sourceRef":"openstreetmap-overpass"},{"id":"osm-way-1069388211","type":"data_center","name":"Google","geometry":{"type":"Point","coordinates":[-80.0460576,33.0644422]},"properties":{"osmType":"way","osmId":1069388211,"operator":"Google","owner":"","address":"","city":"","state":"","postcode":"","website":"","status":"existing","startDate":"","clli":"","coverage":"community_reported","capacityMw":null},"sourceRef":"openstreetmap-overpass"},{"id":"osm-way-1070895993","type":"data_center","name":"Meta","geometry":{"type":"Point","coordinates":[-83.6968472,33.6000742]},"properties":{"osmType":"way","osmId":1070895993,"operator":"Meta","owner":"","address":"","city":"","state":"","postcode":"","website":"","status":"existing","startDate":"","clli":"","coverage":"community_reported","capacityMw":null},"sourceRef":"openstreetmap-overpass"},{"id":"osm-way-1070895994","type":"data_center","name":"Meta","geometry":{"type":"Point","coordinates":[-83.6950212,33.5980717]},"properties":{"osmType":"way","osmId":1070895994,"operator":"Meta","owner":"","address":"","city":"","state":"","postcode":"","website":"","status":"existing","startDate":"","clli":"","coverage":"community_reported","capacityMw":null},"sourceRef":"openstreetmap-overpass"},{"id":"osm-way-1071772119","type":"data_center","name":"Microsoft EAT02","geometry":{"type":"Point","coordinates":[-120.2076878,47.416868]},"properties":{"osmType":"way","osmId":1071772119,"operator":"Microsoft","owner":"","address":"","city":"","state":"","postcode":"","website":"","status":"existing","startDate":"","clli":"","coverage":"community_reported","capacityMw":null},"sourceRef":"openstreetmap-overpass"},{"id":"osm-way-1071774674","type":"data_center","name":"Intergate Columbia D","geometry":{"type":"Point","coordinates":[-120.1915785,47.4075849]},"properties":{"osmType":"way","osmId":1071774674,"operator":"Sabey Data Centers","owner":"","address":"","city":"","state":"","postcode":"","website":"","status":"existing","startDate":"","clli":"","coverage":"community_reported","capacityMw":null},"sourceRef":"openstreetmap-overpass"},{"id":"osm-way-1073720208","type":"data_center","name":"Google","geometry":{"type":"Point","coordinates":[-95.8048567,41.1773457]},"properties":{"osmType":"way","osmId":1073720208,"operator":"Google","owner":"","address":"","city":"","state":"","postcode":"","website":"","status":"existing","startDate":"","clli":"","coverage":"community_reported","capacityMw":null},"sourceRef":"openstreetmap-overpass"},{"id":"osm-way-1073720209","type":"data_center","name":"Google","geometry":{"type":"Point","coordinates":[-95.8063182,41.1772395]},"properties":{"osmType":"way","osmId":1073720209,"operator":"Google","owner":"","address":"","city":"","state":"","postcode":"","website":"","status":"existing","startDate":"","clli":"","coverage":"community_reported","capacityMw":null},"sourceRef":"openstreetmap-overpass"},{"id":"osm-way-1073720210","type":"data_center","name":"Google","geometry":{"type":"Point","coordinates":[-95.8031865,41.1774831]},"properties":{"osmType":"way","osmId":1073720210,"operator":"Google","owner":"","address":"","city":"","state":"","postcode":"","website":"","status":"existing","startDate":"","clli":"","coverage":"community_reported","capacityMw":null},"sourceRef":"openstreetmap-overpass"},{"id":"osm-way-1073720211","type":"data_center","name":"Google","geometry":{"type":"Point","coordinates":[-95.8009224,41.1774894]},"properties":{"osmType":"way","osmId":1073720211,"operator":"Google","owner":"","address":"","city":"","state":"","postcode":"","website":"","status":"existing","startDate":"","clli":"","coverage":"community_reported","capacityMw":null},"sourceRef":"openstreetmap-overpass"},{"id":"osm-way-1073720212","type":"data_center","name":"Google","geometry":{"type":"Point","coordinates":[-95.8067784,41.1755233]},"properties":{"osmType":"way","osmId":1073720212,"operator":"Google","owner":"","address":"","city":"","state":"","postcode":"","website":"","status":"existing","startDate":"","clli":"","coverage":"community_reported","capacityMw":null},"sourceRef":"openstreetmap-overpass"},{"id":"osm-way-1073720213","type":"data_center","name":"Google","geometry":{"type":"Point","coordinates":[-95.8056388,41.1755246]},"properties":{"osmType":"way","osmId":1073720213,"operator":"Google","owner":"","address":"","city":"","state":"","postcode":"","website":"","status":"existing","startDate":"","clli":"","coverage":"community_reported","capacityMw":null},"sourceRef":"openstreetmap-overpass"},{"id":"osm-way-1073720214","type":"data_center","name":"Google","geometry":{"type":"Point","coordinates":[-95.804509,41.1755259]},"properties":{"osmType":"way","osmId":1073720214,"operator":"Google","owner":"","address":"","city":"","state":"","postcode":"","website":"","status":"existing","startDate":"","clli":"","coverage":"community_reported","capacityMw":null},"sourceRef":"openstreetmap-overpass"},{"id":"osm-way-1073720215","type":"data_center","name":"Google","geometry":{"type":"Point","coordinates":[-95.803375,41.1755278]},"properties":{"osmType":"way","osmId":1073720215,"operator":"Google","owner":"","address":"","city":"","state":"","postcode":"","website":"","status":"existing","startDate":"","clli":"","coverage":"community_reported","capacityMw":null},"sourceRef":"openstreetmap-overpass"},{"id":"osm-way-1073720216","type":"data_center","name":"Google","geometry":{"type":"Point","coordinates":[-95.8022395,41.1755307]},"properties":{"osmType":"way","osmId":1073720216,"operator":"Google","owner":"","address":"","city":"","state":"","postcode":"","website":"","status":"existing","startDate":"","clli":"","coverage":"community_reported","capacityMw":null},"sourceRef":"openstreetmap-overpass"},{"id":"osm-way-1073720217","type":"data_center","name":"Google","geometry":{"type":"Point","coordinates":[-95.8011057,41.1755301]},"properties":{"osmType":"way","osmId":1073720217,"operator":"Google","owner":"","address":"","city":"","state":"","postcode":"","website":"","status":"existing","startDate":"","clli":"","coverage":"community_reported","capacityMw":null},"sourceRef":"openstreetmap-overpass"},{"id":"osm-way-1073720218","type":"data_center","name":"Google","geometry":{"type":"Point","coordinates":[-95.7999641,41.1755366]},"properties":{"osmType":"way","osmId":1073720218,"operator":"Google","owner":"","address":"","city":"","state":"","postcode":"","website":"","status":"existing","startDate":"","clli":"","coverage":"community_reported","capacityMw":null},"sourceRef":"openstreetmap-overpass"},{"id":"osm-way-1073720219","type":"data_center","name":"Google","geometry":{"type":"Point","coordinates":[-95.8040298,41.1726404]},"properties":{"osmType":"way","osmId":1073720219,"operator":"Google","owner":"","address":"","city":"","state":"","postcode":"","website":"","status":"existing","startDate":"","clli":"","coverage":"community_reported","capacityMw":null},"sourceRef":"openstreetmap-overpass"},{"id":"osm-way-1073720220","type":"data_center","name":"Google","geometry":{"type":"Point","coordinates":[-95.8025278,41.1726458]},"properties":{"osmType":"way","osmId":1073720220,"operator":"Google","owner":"","address":"","city":"","state":"","postcode":"","website":"","status":"existing","startDate":"","clli":"","coverage":"community_reported","capacityMw":null},"sourceRef":"openstreetmap-overpass"},{"id":"osm-way-1073720221","type":"data_center","name":"Google","geometry":{"type":"Point","coordinates":[-95.8011273,41.1725558]},"properties":{"osmType":"way","osmId":1073720221,"operator":"Google","owner":"","address":"","city":"","state":"","postcode":"","website":"","status":"existing","startDate":"","clli":"","coverage":"community_reported","capacityMw":null},"sourceRef":"openstreetmap-overpass"},{"id":"osm-way-1075278060","type":"data_center","name":"Microsoft","geometry":{"type":"Point","coordinates":[-93.7869962,41.4968303]},"properties":{"osmType":"way","osmId":1075278060,"operator":"Microsoft","owner":"","address":"5855 Southwest Kerry Street, West Des Moines, IA, 50061","city":"West Des Moines","state":"IA","postcode":"50061","website":"","status":"existing","startDate":"","clli":"","coverage":"community_reported","capacityMw":null},"sourceRef":"openstreetmap-overpass"},{"id":"osm-way-1075278061","type":"data_center","name":"Microsoft","geometry":{"type":"Point","coordinates":[-93.8263137,41.539814]},"properties":{"osmType":"way","osmId":1075278061,"operator":"Microsoft","owner":"","address":"","city":"","state":"","postcode":"","website":"","status":"existing","startDate":"","clli":"","coverage":"community_reported","capacityMw":null},"sourceRef":"openstreetmap-overpass"},{"id":"osm-way-1075278062","type":"data_center","name":"Microsoft","geometry":{"type":"Point","coordinates":[-93.8286654,41.5396705]},"properties":{"osmType":"way","osmId":1075278062,"operator":"Microsoft","owner":"","address":"","city":"","state":"","postcode":"","website":"","status":"existing","startDate":"","clli":"","coverage":"community_reported","capacityMw":null},"sourceRef":"openstreetmap-overpass"},{"id":"osm-way-1075445245","type":"data_center","name":"Unnamed data center","geometry":{"type":"Point","coordinates":[-121.9423402,37.3611541]},"properties":{"osmType":"way","osmId":1075445245,"operator":"","owner":"","address":"2220 De La Cruz Boulevard, Santa Clara, CA","city":"Santa Clara","state":"CA","postcode":"","website":"","status":"existing","startDate":"","clli":"","coverage":"community_reported","capacityMw":null},"sourceRef":"openstreetmap-overpass"},{"id":"osm-way-1077131079","type":"data_center","name":"xAI Macrohardrr","geometry":{"type":"Point","coordinates":[-90.0341701,34.9934882]},"properties":{"osmType":"way","osmId":1077131079,"operator":"xAI","owner":"","address":"Stateline Road West, Memphis, TN","city":"Memphis","state":"TN","postcode":"","website":"","status":"existing","startDate":"","clli":"","coverage":"community_reported","capacityMw":null},"sourceRef":"openstreetmap-overpass"},{"id":"osm-way-1080170579","type":"data_center","name":"Flexential Portland - Hillsboro 4 Expansion","geometry":{"type":"Point","coordinates":[-122.941087,45.5553909]},